~Version
 VERS              .         3                             : CWLS LOG ASCII STANDARD - VERSION 3.0
 WRAP              .         NO                            : ONE LINE PER DEPTH STEP
 DLM               .         SPACE                         : DELIMITING CHARACTER(SPACE TAB OR COMMA)
~Well Information
#_______________________________________________________________________________
#
#PARAMETER_NAME    .UNIT     VALUE                         : DESCRIPTION
#_______________________________________________________________________________
STRT               .FEET     158                           : First reference value
STOP               .FEET     5105                          : Last reference value
STEP               .FEET     0.5                           : Step increment
NULL               .         -9999                         : Missing value
WELL               .         SY-070-1-01V                  : Well name
UWI                .UWI      1_200   ,  1_1000             : 
COMP               .COMP     ADCO                          : 
ORIGINALWELLNAME   .ORIGINALWELLNAME SY-70                         : 
FLD                .FLD      SHAH                          : 
API                .API      1_200   ,  1_1000             : 
LOC                .LOC      LATITUDE_  22* 55' 34.407'' N : 
SRVC               .SRVC     Baker ATLAS                   : 
STAT               .STAT     U.A.E                         : 
CNTY               .CNTY     ABU DHABI                     : 
DATE               .DATE     17-JAN-2013                   : 
LIC                .LIC                                    : 
PROV               .PROV                                   : 
LATI               .                                       : 
LONG               .                                       : 
GDAT               .                                       : 
CTRY               .                                       : 
~Parameter Information Block
#_______________________________________________________________________________
#
#PARAMETER_NAME    .UNIT     VALUE                         : DESCRIPTION
#_______________________________________________________________________________
SET                .         LOG_LQC_FNDR                  : 
REAL_CREATION_DATE .         Sun Mar 3 2013-10_46_33       : 
~Curve Information
#_______________________________________________________________________________
#
#LOGNAME           .UNIT     LOG_ID                        : DESCRIPTION
#_______________________________________________________________________________
MD                 .FEET                                   :  {F}
CALI               .IN                                     : Caliper {F}
DRHO               .G/C3                                   : Density correction {F}
DTC                .US/F                                   : Compressional wave slowness {F}
DTS                .US/F                                   : Shear wave slowness {F}
GR                 .GAPI                                   : Gamma ray {F}
NPHI               .PU                                     : Borehole size corrected compensated neutron porosity {F}
PE                 .B/E                                    : Photo electric cross-section {F}
RHOB               .G/C3                                   : Borehole size/mud weight corrected density {F}
RPD2               .OHMM                                   : 2 MHz 46" PH Calculated Downhole {F}
RPS2               .OHMM                                   : 2 MHz 20" PH Calculated Downhole {F}
VPVS               .                                       : Compressional to shear velocity ratio {F}
~Ascii
# ...
4731       11.9497    0.1064735  107.0223   284.205    64.80031   46.00671   2.862444   2.503608   0.7628755  0.7605935  0.3764598 
4731.5     11.40171   0.1283391  104.2007   280.1898   62.48529   39.63126   2.771354   2.505066   0.8107376  0.8047982  0.3720627 
4732       10.79158   0.1469531  102.7585   276.2913   61.52826   35.07113   2.731508   2.516457   0.7792909  0.7878313  0.3723167 
4732.5     10.70276   0.1223084  103.2491   274.0679   63.43063   35.12007   2.693262   2.498299   0.6918101  0.7213673  0.3769217 
4733       11.10148   0.08311885 105.1589   274.2719   67.86969   38.71585   2.646482   2.461156   0.6076053  0.6426169  0.3835511 
4733.5     11.35568   0.07029239 107.5827   278.6808   71.55651   41.35262   2.62884    2.439566   0.5668839  0.596342   0.3859778 
4734       11.15542   0.07900492 109.562    286.1047   72.30704   41.07022   2.618306   2.444224   0.5552897  0.5776588  0.3826902 
4734.5     10.85465   0.0860176  110.6058   295.263    71.68212   39.87268   2.603095   2.456116   0.5449193  0.5621679  0.3744366 
4735       10.92382   0.08379259 110.9541   302.719    71.84416   40.92455   2.593687   2.452826   0.5323878  0.5471997  0.3664167 
4735.5     11.36831   0.07604297 111.4563   307.4934   72.78173   43.50748   2.593416   2.436911   0.5252219  0.5388353  0.3627147 
4736       11.77371   0.07244796 112.5045   308.7413   73.8543    45.58954   2.6091     2.425077   0.5315932  0.5428542  0.3646305 
4736.5     11.83059   0.07788654 113.3904   308.6046   74.52493   45.17528   2.640011   2.42611    0.5465816  0.5555463  0.3673249 
4737       11.73415   0.08852113 113.6843   307.8675   74.20826   43.39263   2.678131   2.434679   0.5585984  0.5671856  0.3692969 
4737.5     11.81747   0.09758052 113.2802   307.111    73.13097   42.46328   2.725308   2.441854   0.5618832  0.5726672  0.3686936 
4738       12.00953   0.10061    112.6377   305.4493   72.56941   42.58631   2.772529   2.444172   0.5603915  0.5748534  0.368674  
4738.5     11.97672   0.1119452  112.2948   303.2714   73.41481   43.2483    2.800814   2.447421   0.5610623  0.5776406  0.3703416 
4739       11.67143   0.1299601  112.0951   300.5181   75.43732   44.39668   2.795321   2.454967   0.5625485  0.5781314  0.3730113 
4739.5     11.37796   0.141165   112.4062   298.3685   77.30537   45.32903   2.773356   2.460852   0.5592015  0.5720914  0.3766656 
4740       11.31052   0.1385246  112.8995   296.9979   77.43616   45.57305   2.761635   2.457611   0.5515353  0.5628393  0.3799915 
4740.5     11.43359   0.1320527  113.4547   297.4213   76.69755   45.09437   2.763393   2.448462   0.5431116  0.5545818  0.3816613 
4741       11.63417   0.1375909  114.1256   298.8      76.73805   43.31509   2.781765   2.442987   0.5355251  0.5474041  0.3819794 
4741.5     11.90714   0.138989   114.536    300.9185   77.07564   42.04225   2.804001   2.44007    0.5312194  0.5417951  0.380653  
4742       12.21209   0.12736    114.68     303.1495   77.05691   41.87808   2.809145   2.434159   0.528688   0.5365959  0.3786182 
4742.5     12.37726   0.115584   114.2663   305.3724   77.17397   42.97157   2.799458   2.426246   0.5264058  0.5331516  0.3746227 
4743       12.32474   0.116963   113.565    307.4913   76.97042   44.34949   2.783688   2.424672   0.5271877  0.5326703  0.3696061 
4743.5     12.17855   0.1334523  112.7968   309.8893   75.74422   44.01065   2.77923    2.430139   0.535953   0.5388913  0.3639438 
4744       12.07695   0.1542302  112.3786   313.4138   74.59206   42.12036   2.766663   2.436038   0.542846   0.5441701  0.358616  
4744.5     12.04979   0.1630038  112.4845   317.3179   74.80099   40.67868   2.737445   2.438527   0.5426968  0.5441718  0.3543044 
4745       12.10718   0.1534492  112.7851   320.3773   76.1413    40.66067   2.706962   2.435766   0.5408614  0.5432147  0.3516645 
4745.5     12.23795   0.1338078  113.4131   323.0854   76.70058   41.30487   2.693438   2.433687   0.5410593  0.5435201  0.3509593 
4746       12.33347   0.1159521  114.0305   326.7155   75.18422   42.13945   2.749714   2.435622   0.5430759  0.5465468  0.3489644 
4746.5     12.25849   0.1177528  114.6206   330.601    73.03893   43.05737   2.822664   2.436292   0.5394664  0.5431886  0.34666   
4747       11.99006   0.194034   115.1353   333.0157   72.89513   43.91375   2.862426   2.43998    0.5309135  0.5327158  0.3460155 
4747.5     11.65226   0.2831085  115.7043   333.9009   74.68452   44.00675   2.882324   2.445388   0.5255761  0.5263045  0.3467028 
4748       11.47103   0.3206045  116.4784   334.231    76.01925   43.80537   2.894829   2.449092   0.5292435  0.5282475  0.3483763 
4748.5     11.59601   0.3095145  117.2439   334.7891   76.17596   44.91215   2.884914   2.451152   0.5366599  0.531776   0.3503458 
4749       11.91486   0.2381853  117.7065   335.6952   76.37018   46.26639   2.859447   2.452062   0.5421572  0.5347694  0.3509187 
4749.5     12.19082   0.1792926  116.962    336.6566   76.29659   46.95543   2.825051   2.459104   0.5418404  0.5377331  0.3475275 
4750       12.23687   0.1563876  115.0928   336.9934   74.56321   46.49037   2.797069   2.471455   0.541895   0.5484892  0.3418474 
4750.5     11.94937   0.1430424  112.8299   335.8442   71.80238   44.59277   2.767946   2.478182   0.5602593  0.5788767  0.3359655 
4751       11.4217    0.1253156  111.218    331.9943   69.06541   42.35801   2.749704   2.479166   0.5932715  0.6153976  0.3347498 
4751.5     10.90269   0.1078953  110.6643   327.3297   65.99799   40.50734   2.743206   2.481213   0.6153338  0.6332799  0.3378218 
4752       10.6501    0.09410933 110.9276   323.2874   63.60796   39.12738   2.715242   2.479517   0.6016504  0.6178156  0.343087  
4752.5     10.81343   0.08259045 111.9878   323.9581   63.80277   38.78064   2.657935   2.467041   0.5530694  0.5731944  0.345641  
4753       11.253     0.07193161 113.919    330.6261   65.85822   40.07795   2.604401   2.438488   0.507599   0.5275383  0.3444448 
4753.5     11.59153   0.06552833 115.9556   344.0858   67.51079   43.77715   2.595709   2.412585   0.4837874  0.4995618  0.3369943 
4754       11.63846   0.073566   117.4289   359.2997   68.19662   49.01002   2.621288   2.409081   0.4752469  0.4877554  0.3270024 
4754.5     11.53343   0.08873612 117.9612   370.9021   68.44485   52.37513   2.64061    2.42154    0.4742316  0.486364   0.3178636 
4755       11.47553   0.09805788 118.1737   374.9484   68.44327   52.72399   2.639083   2.43529    0.4782904  0.4911183  0.3150434 
4755.5     11.5283    0.10207    118.0051   372.6604   68.41215   51.10509   2.628741   2.441998   0.4904414  0.5046851  0.3164747 
4756       11.61156   0.1034452  117.282    365.5374   68.32905   49.825     2.605383   2.448126   0.5022087  0.5139524  0.3205288 
4756.5     11.60824   0.09660824 115.8509   355.6861   67.78406   49.12879   2.584887   2.454327   0.5227205  0.523532   0.3255562 
4757       11.44692   0.0896304  113.5152   342.8229   66.91032   47.05603   2.591553   2.460021   0.5518791  0.5443785  0.3313657 
4757.5     11.11557   0.08615385 110.513    324.6379   66.49725   43.30581   2.619923   2.466692   0.576663   0.5680838  0.3409489 
4758       10.64635   0.08447142 107.0962   301.3418   66.65258   39.9948    2.661786   2.476712   0.6037429  0.5983275  0.3561287 
4758.5     10.14224   0.08507827 103.9026   278.0961   66.60554   37.04802   2.675742   2.49598    0.6614836  0.6601346  0.3743988 
4759       9.733616   0.07778779 101.9471   261.8476   65.174     34.80018   2.639813   2.509874   0.781002   0.7853255  0.3896585 
4759.5     9.489055   0.06646657 100.498    254.5829   61.28874   34.60153   2.591309   2.524359   0.8860103  0.8984677  0.3945628 
4760       9.446398   0.06467219 100.4636   256.4147   56.78747   35.99467   2.56309    2.542774   0.8688031  0.8887571  0.3914019 
4760.5     9.736691   0.07095143 101.9427   264.1214   55.82818   40.03419   2.573031   2.556638   0.7632354  0.792985   0.3858087 
4761       10.36347   0.07904454 105.0203   274.3929   59.61093   44.61068   2.681099   2.554828   0.6676652  0.7018129  0.3826711 
