~Version
 VERS              .         3                             : CWLS LOG ASCII STANDARD - VERSION 3.0
 WRAP              .         NO                            : ONE LINE PER DEPTH STEP
 DLM               .         SPACE                         : DELIMITING CHARACTER(SPACE TAB OR COMMA)
~Well Information
#_______________________________________________________________________________
#
#PARAMETER_NAME    .UNIT     VALUE                         : DESCRIPTION
#_______________________________________________________________________________
STRT               .FEET     158                           : First reference value
STOP               .FEET     5105                          : Last reference value
STEP               .FEET     0.5                           : Step increment
NULL               .         -9999                         : Missing value
WELL               .         SY-070-1-01V                  : Well name
UWI                .UWI      1_200   ,  1_1000             : 
COMP               .COMP     ADCO                          : 
ORIGINALWELLNAME   .ORIGINALWELLNAME SY-70                         : 
FLD                .FLD      SHAH                          : 
API                .API      1_200   ,  1_1000             : 
LOC                .LOC      LATITUDE_  22* 55' 34.407'' N : 
SRVC               .SRVC     Baker ATLAS                   : 
STAT               .STAT     U.A.E                         : 
CNTY               .CNTY     ABU DHABI                     : 
DATE               .DATE     17-JAN-2013                   : 
LIC                .LIC                                    : 
PROV               .PROV                                   : 
LATI               .                                       : 
LONG               .                                       : 
GDAT               .                                       : 
CTRY               .                                       : 
~Parameter Information Block
#_______________________________________________________________________________
#
#PARAMETER_NAME    .UNIT     VALUE                         : DESCRIPTION
#_______________________________________________________________________________
SET                .         LOG_LQC_FNDR                  : 
REAL_CREATION_DATE .         Sun Mar 3 2013-10_46_33       : 
~Curve Information
#_______________________________________________________________________________
#
#LOGNAME           .UNIT     LOG_ID                        : DESCRIPTION
#_______________________________________________________________________________
MD                 .FEET                                   :  {F}
CALI               .IN                                     : Caliper {F}
DRHO               .G/C3                                   : Density correction {F}
DTC                .US/F                                   : Compressional wave slowness {F}
DTS                .US/F                                   : Shear wave slowness {F}
GR                 .GAPI                                   : Gamma ray {F}
NPHI               .PU                                     : Borehole size corrected compensated neutron porosity {F}
PE                 .B/E                                    : Photo electric cross-section {F}
RHOB               .G/C3                                   : Borehole size/mud weight corrected density {F}
RPD2               .OHMM                                   : 2 MHz 46" PH Calculated Downhole {F}
RPS2               .OHMM                                   : 2 MHz 20" PH Calculated Downhole {F}
VPVS               .                                       : Compressional to shear velocity ratio {F}
~Ascii
# ...
3725.5     13.25962   -0.0258451 87.80508   178.7931   16.37751   31.30085   3.311973   2.126319   -9999      -9999      2.036326  
3726       13.11142   -0.01722608 89.01348   183.9268   16.19382   32.05258   3.274056   2.115409   -9999      -9999      2.066153  
3726.5     12.96829   -0.009491841 90.01938   190.0964   16.11483   33.68552   3.267326   2.124219   -9999      -9999      2.111567  
3727       12.90493   -0.006079627 90.93916   196.4928   16.14018   35.49181   3.3097     2.150913   -9999      -9999      2.160368  
3727.5     12.93311   -0.00796722 91.78867   201.1646   16.22516   36.134     3.38746    2.180524   -9999      -9999      2.191171  
3728       13.04967   -0.01304979 92.49561   202.4862   16.35077   36.17484   3.439535   2.197917   -9999      -9999      2.188887  
3728.5     13.23231   -0.01756769 92.53891   200.6057   16.65286   37.19538   3.420065   2.20302    -9999      -9999      2.167708  
3729       13.37669   -0.01978114 92.15537   197.8081   17.33256   38.31336   3.358311   2.206429   -9999      -9999      2.146327  
3729.5     13.37862   -0.02156187 91.55378   196.6214   18.29912   37.07962   3.333622   2.210331   -9999      -9999      2.147613  
3730       13.27737   -0.02480664 91.90311   198.4029   19.16123   34.40057   3.377579   2.210438   -9999      -9999      2.159094  
3730.5     13.19574   -0.02857004 92.18805   201.7813   19.83055   33.46528   3.437367   2.207588   -9999      -9999      2.189161  
3731       13.19068   -0.03085898 91.63019   205.9446   20.3322    34.97741   3.46973    2.207095   -9999      -9999      2.247784  
3731.5     13.24758   -0.03318343 90.46855   210.2858   20.26918   36.40638   3.519799   2.211288   -9999      -9999      2.324948  
3732       13.33066   -0.03696314 89.20178   213.3098   19.40786   35.53058   3.638584   2.21752    -9999      -9999      2.391481  
3732.5     13.3967    -0.04205388 88.80248   216.0304   18.33192   33.70712   3.776194   2.220701   -9999      -9999      2.432621  
3733       13.42816   -0.04649625 89.37598   219.3507   17.7795    33.31015   3.843891   2.216468   -9999      -9999      2.454206  
3733.5     13.44265   -0.04776775 90.67558   222.6487   17.79298   34.54615   3.808634   2.204785   -9999      -9999      2.455423  
3734       13.45629   -0.04566339 92.09003   223.5319   18.10944   35.67939   3.678162   2.193285   -9999      -9999      2.427674  
3734.5     13.47057   -0.04094404 93.24131   222.2522   18.71796   35.31091   3.487369   2.191173   -9999      -9999      2.384118  
3735       13.49432   -0.03642373 93.75841   219.9727   19.42222   34.40481   3.326322   2.199727   -9999      -9999      2.346276  
3735.5     13.53878   -0.0344515 93.65057   217.6367   19.67587   35.19902   3.308194   2.213537   -9999      -9999      2.323693  
3736       13.57306   -0.03477803 93.30116   215.5911   19.34298   37.70131   3.444368   2.222919   -9999      -9999      2.310535  
3736.5     13.5327    -0.03602253 93.53939   212.3312   18.9673    38.95366   3.59032    2.221638   -9999      -9999      2.270067  
3737       13.40282   -0.03459124 94.2206    209.132    19.16794   38.18894   3.612042   2.214842   -9999      -9999      2.219816  
3737.5     13.25342   -0.02901289 94.56941   206.8087   20.18859   37.46917   3.548839   2.210597   -9999      -9999      2.186913  
3738       13.15818   -0.02153734 94.38153   204.8763   21.42178   36.84605   3.499049   2.20822    -9999      -9999      2.170708  
3738.5     13.12696   -0.01524061 94.2433    202.4398   21.91317   35.80853   3.461734   2.203163   -9999      -9999      2.148291  
3739       13.14399   -0.01322464 94.15231   200.5644   21.66492   35.48722   3.398438   2.197689   -9999      -9999      2.130388  
3739.5     13.20931   -0.01510498 94.01536   200.0837   21.15712   35.6891    3.333246   2.199807   -9999      -9999      2.12821   
3740       13.29513   -0.01810498 93.36559   200.365    20.3033    35.095     3.315412   2.210079   -9999      -9999      2.146359  
3740.5     13.31423   -0.02065956 91.88305   200.9103   19.13961   34.52662   3.34079    2.21647    -9999      -9999      2.187151  
3741       13.21937   -0.01937687 90.69637   201.6101   18.23762   35.01863   3.342435   2.208436   -9999      -9999      2.223016  
3741.5     13.07991   -0.01168818 90.5543    202.8174   17.80819   35.17091   3.26343    2.188086   -9999      -9999      2.239759  
3742       12.98916   0.0007498985 91.20232   204.5173   17.7802    33.98806   3.140253   2.164045   -9999      -9999      2.242523  
3742.5     12.96939   0.01346321 92.27538   206.7723   18.2841    33.25485   3.06611    2.145169   -9999      -9999      2.2407    
3743       13.01133   0.02022316 93.20613   209.0228   19.11003   34.09488   3.0919     2.138764   -9999      -9999      2.242571  
3743.5     13.10772   0.01941151 94.2097    210.459    19.56537   34.84705   3.196426   2.147187   -9999      -9999      2.234203  
3744       13.21567   0.01787831 94.79658   210.8087   19.29598   34.15776   3.283408   2.163027   -9999      -9999      2.224098  
3744.5     13.24083   0.02248984 94.81277   209.9737   18.67725   32.97709   3.234      2.169039   -9999      -9999      2.214827  
3745       13.14092   0.0345249  94.15804   207.7046   18.21866   32.65731   3.079475   2.15578    -9999      -9999      2.206131  
3745.5     13.00373   0.04873471 93.34767   205.2889   17.94627   33.45628   2.979505   2.137896   -9999      -9999      2.199061  
3746       12.95548   0.05573242 92.72327   203.8895   17.607     34.17761   3.037347   2.140067   -9999      -9999      2.198723  
3746.5     13.04023   0.0491434  92.46278   204.1304   17.16505   33.34806   3.240141   2.165491   -9999      -9999      2.207605  
3747       13.20309   0.02805517 92.40528   206.1845   16.84411   31.71392   3.474015   2.188266   -9999      -9999      2.231202  
3747.5     13.33858   0.002469688 92.86958   208.8569   16.8366    31.02102   3.573555   2.182254   -9999      -9999      2.248699  
3748       13.36643   -0.01078359 93.60023   210.9562   16.99219   31.50576   3.446529   2.150494   -9999      -9999      2.253595  
3748.5     13.29376   -0.006911999 94.05409   212.364    16.88327   32.64077   3.172008   2.110864   -9999      -9999      2.25781   
3749       13.19905   0.00861288 94.04486   214.3061   16.61525   34.50142   2.941239   2.076878   -9999      -9999      2.278942  
3749.5     13.19842   0.02384564 93.95884   217.8571   16.85014   36.96601   2.881552   2.058834   -9999      -9999      2.318655  
3750       13.35084   0.02802555 93.86964   220.3455   17.28462   38.60698   2.970983   2.064986   -9999      -9999      2.347427  
3750.5     13.51562   0.01889925 93.59805   220.4477   17.00299   38.73669   3.112663   2.092774   -9999      -9999      2.355573  
3751       13.50133   0.003334719 93.59445   219.0249   16.33249   38.02548   3.259667   2.12235    -9999      -9999      2.340303  
3751.5     13.34726   -0.004295309 93.83913   218.9828   16.22709   36.32499   3.375211   2.131489   -9999      -9999      2.333613  
3752       13.21149   0.006725388 93.89906   219.7468   16.63834   33.34465   3.363812   2.118727   -9999      -9999      2.340449  
3752.5     13.1193    0.03383283 93.76683   218.9792   16.9084    30.57268   3.226627   2.109198   -9999      -9999      2.335706  
3753       13.06078   0.05635919 93.55646   215.9981   16.94929   29.89248   3.109232   2.120781   -9999      -9999      2.308677  
3753.5     13.1089    0.05555996 92.93264   211.4283   17.43731   31.41803   3.14206    2.147006   -9999      -9999      2.274862  
3754       13.28463   0.0325863  92.34078   208.0259   18.95354   33.30938   3.307507   2.169547   -9999      -9999      2.252789  
3754.5     13.49836   0.006170617 92.05541   207.1212   20.79126   33.68174   3.45085    2.174654   -9999      -9999      2.249923  
3755       13.64448   -0.005569009 92.17684   208.9642   21.23449   32.90741   3.453473   2.163505   -9999      -9999      2.266896  
3755.5     13.67954   -0.001218812 92.9727    210.8903   19.80496   32.72828   3.352582   2.145499   -9999      -9999      2.268137  
