~Version
 VERS              .         3                             : CWLS LOG ASCII STANDARD - VERSION 3.0
 WRAP              .         NO                            : ONE LINE PER DEPTH STEP
 DLM               .         SPACE                         : DELIMITING CHARACTER(SPACE TAB OR COMMA)
~Well Information
#_______________________________________________________________________________
#
#PARAMETER_NAME    .UNIT     VALUE                         : DESCRIPTION
#_______________________________________________________________________________
STRT               .FEET     158                           : First reference value
STOP               .FEET     5105                          : Last reference value
STEP               .FEET     0.5                           : Step increment
NULL               .         -9999                         : Missing value
WELL               .         SY-070-1-01V                  : Well name
UWI                .UWI      1_200   ,  1_1000             : 
COMP               .COMP     ADCO                          : 
ORIGINALWELLNAME   .ORIGINALWELLNAME SY-70                         : 
FLD                .FLD      SHAH                          : 
API                .API      1_200   ,  1_1000             : 
LOC                .LOC      LATITUDE_  22* 55' 34.407'' N : 
SRVC               .SRVC     Baker ATLAS                   : 
STAT               .STAT     U.A.E                         : 
CNTY               .CNTY     ABU DHABI                     : 
DATE               .DATE     17-JAN-2013                   : 
LIC                .LIC                                    : 
PROV               .PROV                                   : 
LATI               .                                       : 
LONG               .                                       : 
GDAT               .                                       : 
CTRY               .                                       : 
~Parameter Information Block
#_______________________________________________________________________________
#
#PARAMETER_NAME    .UNIT     VALUE                         : DESCRIPTION
#_______________________________________________________________________________
SET                .         LOG_LQC_FNDR                  : 
REAL_CREATION_DATE .         Sun Mar 3 2013-10_46_33       : 
~Curve Information
#_______________________________________________________________________________
#
#LOGNAME           .UNIT     LOG_ID                        : DESCRIPTION
#_______________________________________________________________________________
MD                 .FEET                                   :  {F}
CALI               .IN                                     : Caliper {F}
DRHO               .G/C3                                   : Density correction {F}
DTC                .US/F                                   : Compressional wave slowness {F}
DTS                .US/F                                   : Shear wave slowness {F}
GR                 .GAPI                                   : Gamma ray {F}
NPHI               .PU                                     : Borehole size corrected compensated neutron porosity {F}
PE                 .B/E                                    : Photo electric cross-section {F}
RHOB               .G/C3                                   : Borehole size/mud weight corrected density {F}
RPD2               .OHMM                                   : 2 MHz 46" PH Calculated Downhole {F}
RPS2               .OHMM                                   : 2 MHz 20" PH Calculated Downhole {F}
VPVS               .                                       : Compressional to shear velocity ratio {F}
~Ascii
# ...
1439       14.19408   -0.07334726 77.40717   206.3525   26.85427   21.15322   4.86716    2.527007   -9999      -9999      2.666283  
1439.5     14.08004   -0.08092156 80.53126   204.383    27.07928   20.22602   4.906486   2.491468   -9999      -9999      2.539262  
1440       14.05431   -0.0736551 84.78634   203.45     26.99197   19.2284    5.230626   2.499857   -9999      -9999      2.40094   
1440.5     14.08244   -0.06428618 88.96202   203.0903   27.02294   19.20938   5.217084   2.503384   -9999      -9999      2.283689  
1441       14.11664   -0.06524106 91.72353   203.8528   28.16232   20.65212   4.745919   2.431927   -9999      -9999      2.222986  
1441.5     14.11224   -0.06618925 93.00708   206.8817   30.32867   23.03944   4.267107   2.331161   -9999      -9999      2.224427  
1442       14.07977   -0.0583189 91.87236   210.7195   31.63261   25.37549   3.96835    2.273046   -9999      -9999      2.294003  
1442.5     14.06791   -0.04703339 90.17409   212.739    30.92749   26.7312    3.802909   2.263492   -9999      -9999      2.359541  
1443       14.085     -0.03937615 88.88552   212.2613   29.58432   27.11778   3.703055   2.269542   -9999      -9999      2.388215  
1443.5     14.10253   -0.03720554 88.99345   210.8992   29.16804   27.27695   3.652694   2.273943   -9999      -9999      2.370233  
1444       14.13072   -0.03693743 89.67046   210.8198   28.81009   27.73689   3.676604   2.282088   -9999      -9999      2.351521  
1444.5     14.21928   -0.03582714 90.81811   211.7881   27.01609   28.84222   3.769109   2.295166   -9999      -9999      2.332037  
1445       14.39566   -0.03060036 90.46312   212.6324   24.4645    30.14814   3.819887   2.298765   -9999      -9999      2.350538  
1445.5     14.6148    -0.02154889 89.47084   212.7808   22.95348   31.50492   3.713437   2.265571   -9999      -9999      2.378354  
1446       14.79674   -0.0132634 88.36258   212.7852   22.38855   33.94825   3.498142   2.178941   -9999      -9999      2.408129  
1446.5     14.91595   -0.006914352 87.6506    213.9341   21.50411   37.37426   3.294825   2.071264   -9999      -9999      2.440771  
1447       15.01051   -0.001641894 88.21498   216.2119   20.22293   39.42402   3.164304   1.989217   -9999      -9999      2.451096  
1447.5     15.11535   0.00389142 89.60497   220.7442   19.2281    40.02365   3.105055   1.952514   -9999      -9999      2.463326  
1448       15.2193    0.00652085 90.67451   227.4912   18.47071   41.22894   3.089514   1.954649   -9999      -9999      2.50879   
1448.5     15.29893   0.005876126 92.09471   235.3438   17.53648   42.78313   3.10927    1.985201   -9999      -9999      2.555272  
1449       15.34445   0.001435424 94.39501   241.915    16.37381   44.09381   3.18851    2.034098   -9999      -9999      2.563246  
1449.5     15.36092   -0.006872681 97.2909    244.5908   15.66649   45.22762   3.335441   2.089999   -9999      -9999      2.514623  
1450       15.36598   -0.01746294 99.03674   242.8536   15.87031   45.03206   3.502139   2.135556   -9999      -9999      2.452612  
1450.5     15.37422   -0.02846618 99.91031   240.0652   15.98732   41.41696   3.59528    2.153087   -9999      -9999      2.403109  
1451       15.38891   -0.03940076 99.89937   239.6186   15.18973   36.92141   3.568173   2.141505   -9999      -9999      2.398682  
1451.5     15.40568   -0.04954187 99.13872   238.6578   14.4248    35.45744   3.4859     2.125217   -9999      -9999      2.4076    
1452       15.41258   -0.05861367 97.58363   238.9546   14.97459   36.44528   3.457637   2.127788   -9999      -9999      2.4492    
1452.5     15.398     -0.06589209 96.26752   239.2565   16.29158   37.1759    3.509476   2.142467   -9999      -9999      2.485638  
1453       15.35168   -0.07096045 95.49796   240.2772   17.11963   36.9073    3.570199   2.14761    -9999      -9999      2.51593   
1453.5     15.27499   -0.07178935 95.12014   239.7481   17.54159   36.49719   3.605679   2.139658   -9999      -9999      2.520765  
1454       15.21128   -0.06955433 94.78525   238.8842   18.36007   35.55067   3.650079   2.130804   -9999      -9999      2.520454  
1454.5     15.23155   -0.06820841 94.487     236.9275   19.36815   34.22533   3.711677   2.12835    -9999      -9999      2.507845  
1455       15.36018   -0.06785741 94.0043    233.8762   19.88412   33.19824   3.745028   2.129726   -9999      -9999      2.487953  
1455.5     15.5705    -0.06598701 93.16875   229.8251   19.77719   33.03289   3.727043   2.131511   -9999      -9999      2.466518  
1456       15.83605   -0.06053035 92.33421   224.7109   19.27384   34.55615   3.666478   2.131281   -9999      -9999      2.433773  
1456.5     16.11633   -0.05114506 91.85519   220.65     18.4208    38.66198   3.549813   2.132516   -9999      -9999      2.402068  
1457       16.35701   -0.03898689 92.24908   216.6363   17.31977   44.83666   3.360427   2.141077   -9999      -9999      2.348173  
1457.5     16.53556   -0.02865068 93.39297   215.1794   16.1177    48.87284   3.144163   2.155169   -9999      -9999      2.303812  
1458       16.68117   -0.02218108 94.79501   216.0247   15.02369   46.23397   2.973959   2.1628     -9999      -9999      2.278902  
1458.5     16.82108   -0.02028349 96.03483   219.2381   14.11821   41.34574   2.869644   2.155834   -9999      -9999      2.283006  
1459       16.94031   -0.02086496 97.22172   222.8565   13.36975   40.25461   2.823493   2.140445   -9999      -9999      2.292171  
1459.5     17.00508   -0.02164079 97.87769   226.0409   12.74387   43.52207   2.852625   2.125695   -9999      -9999      2.309688  
1460       17.00232   -0.02011881 98.17847   227.7285   12.23844   46.34789   2.965125   2.118484   -9999      -9999      2.319416  
1460.5     16.93949   -0.0163858 97.47227   228.4295   12.01413   45.00344   3.094604   2.120278   -9999      -9999      2.343366  
1461       16.83168   -0.01095532 95.81325   226.8151   12.41732   41.44905   3.125452   2.130697   -9999      -9999      2.367131  
1461.5     16.69001   -0.006839879 93.76997   223.7487   13.44601   38.16943   3.024198   2.145786   -9999      -9999      2.386414  
1462       16.53683   -0.006690681 92.29347   218.9751   14.54421   35.36075   2.919716   2.161      -9999      -9999      2.372376  
1462.5     16.41279   -0.01426472 91.47462   214.3457   15.22494   33.49126   2.98535    2.175695   -9999      -9999      2.342875  
1463       16.353     -0.02816253 91.22326   211.5776   15.30532   32.29152   3.248111   2.187073   -9999      -9999      2.319594  
1463.5     16.36395   -0.04443397 91.08509   211.4057   14.94632   31.195     3.523817   2.192479   -9999      -9999      2.321007  
1464       16.45617   -0.05765295 91.32703   213.5845   14.58818   30.67943   3.630026   2.188246   -9999      -9999      2.338346  
1464.5     16.64093   -0.06386757 91.69581   216.9909   14.70181   31.29103   3.603471   2.176245   -9999      -9999      2.366036  
1465       16.89569   -0.06381523 92.08966   220.7534   15.22513   32.82208   3.565729   2.158505   -9999      -9999      2.396756  
1465.5     17.17131   -0.05957861 92.39324   224.722    15.37473   35.06971   3.55737    2.139898   -9999      -9999      2.432356  
1466       17.42116   -0.05362841 92.9099    228.1476   14.82718   36.45221   3.5569     2.125159   -9999      -9999      2.455494  
1466.5     17.62012   -0.04588708 93.72331   231.076    14.41408   34.49223   3.537541   2.114871   -9999      -9999      2.465538  
1467       17.76055   -0.03630647 94.40446   232.4233   14.84396   32.08283   3.481666   2.110956   -9999      -9999      2.461995  
1467.5     17.83844   -0.02662837 94.44816   232.0165   15.42567   32.99068   3.389031   2.113965   -9999      -9999      2.456431  
1468       17.85317   -0.02035097 93.80911   230.335    15.60333   35.71278   3.302492   2.122617   -9999      -9999      2.455274  
1468.5     17.83611   -0.02052431 93.26659   227.9636   15.65528   35.55139   3.299942   2.131258   -9999      -9999      2.444142  
1469       17.85061   -0.02816144 92.85335   226.3519   15.64247   33.31715   3.398312   2.134166   -9999      -9999      2.437814  
