~Version
 VERS              .         3                             : CWLS LOG ASCII STANDARD - VERSION 3.0
 WRAP              .         NO                            : ONE LINE PER DEPTH STEP
 DLM               .         SPACE                         : DELIMITING CHARACTER(SPACE TAB OR COMMA)
~Well Information
#_______________________________________________________________________________
#
#PARAMETER_NAME    .UNIT     VALUE                         : DESCRIPTION
#_______________________________________________________________________________
STRT               .FEET     158                           : First reference value
STOP               .FEET     5105                          : Last reference value
STEP               .FEET     0.5                           : Step increment
NULL               .         -9999                         : Missing value
WELL               .         SY-070-1-01V                  : Well name
UWI                .UWI      1_200   ,  1_1000             : 
COMP               .COMP     ADCO                          : 
ORIGINALWELLNAME   .ORIGINALWELLNAME SY-70                         : 
FLD                .FLD      SHAH                          : 
API                .API      1_200   ,  1_1000             : 
LOC                .LOC      LATITUDE_  22* 55' 34.407'' N : 
SRVC               .SRVC     Baker ATLAS                   : 
STAT               .STAT     U.A.E                         : 
CNTY               .CNTY     ABU DHABI                     : 
DATE               .DATE     17-JAN-2013                   : 
LIC                .LIC                                    : 
PROV               .PROV                                   : 
LATI               .                                       : 
LONG               .                                       : 
GDAT               .                                       : 
CTRY               .                                       : 
~Parameter Information Block
#_______________________________________________________________________________
#
#PARAMETER_NAME    .UNIT     VALUE                         : DESCRIPTION
#_______________________________________________________________________________
SET                .         LOG_LQC_FNDR                  : 
REAL_CREATION_DATE .         Sun Mar 3 2013-10_46_33       : 
~Curve Information
#_______________________________________________________________________________
#
#LOGNAME           .UNIT     LOG_ID                        : DESCRIPTION
#_______________________________________________________________________________
MD                 .FEET                                   :  {F}
CALI               .IN                                     : Caliper {F}
DRHO               .G/C3                                   : Density correction {F}
DTC                .US/F                                   : Compressional wave slowness {F}
DTS                .US/F                                   : Shear wave slowness {F}
GR                 .GAPI                                   : Gamma ray {F}
NPHI               .PU                                     : Borehole size corrected compensated neutron porosity {F}
PE                 .B/E                                    : Photo electric cross-section {F}
RHOB               .G/C3                                   : Borehole size/mud weight corrected density {F}
RPD2               .OHMM                                   : 2 MHz 46" PH Calculated Downhole {F}
RPS2               .OHMM                                   : 2 MHz 20" PH Calculated Downhole {F}
VPVS               .                                       : Compressional to shear velocity ratio {F}
~Ascii
# ...
798.5      18.97292   0.08809063 140.5205   399.162    26.53066   66.88374   1.147238   1.628843   -9999      -9999      2.840433  
799        18.73589   0.09577991 139.1319   395.3672   30.85209   60.78357   1.172652   1.667615   -9999      -9999      2.841982  
799.5      18.20617   0.1052768  136.9962   396.0218   36.34905   63.35875   1.277183   1.760602   -9999      -9999      2.89139   
800        17.27809   0.1034137  134.9965   400.8708   42.65132   73.77117   1.4922     1.871673   -9999      -9999      2.969609  
800.5      16.09022   0.08893731 133.8747   407.3966   48.96968   74.12463   1.836447   1.97991    -9999      -9999      3.043047  
801        15.01861   0.06714896 133.1071   410.5258   54.36007   57.541     2.20889    2.0693     -9999      -9999      3.083872  
801.5      14.38036   0.04259285 132.9381   411.8309   58.11553   43.8727    2.405743   2.122179   -9999      -9999      3.097607  
802        14.18842   0.02221733 132.8329   411.5839   59.96894   37.9678    2.372091   2.140173   -9999      -9999      3.098177  
802.5      14.21704   0.01054628 133.0086   412.5125   60.13997   36.90901   2.228396   2.141256   -9999      -9999      3.101446  
803        14.27087   0.005039566 132.8335   414.7545   59.50594   38.35877   2.09627    2.136295   -9999      -9999      3.122644  
803.5      14.31407   0.002069036 132.1131   415.8694   59.27381   39.74244   2.045326   2.128511   -9999      -9999      3.147882  
804        14.38293   0.00109966 130.8733   411.2887   59.06554   39.77607   2.053775   2.121405   -9999      -9999      3.142534  
804.5      14.50119   0.002280787 129.1533   400.9568   56.64875   39.08572   2.037602   2.120113   -9999      -9999      3.104402  
805        14.67805   0.006811828 127.2418   390.2302   51.11695   38.04515   1.955987   2.124233   -9999      -9999      3.066874  
805.5      14.95274   0.01578012 125.6691   383.9853   43.94211   37.20781   1.827534   2.125818   -9999      -9999      3.055488  
806        15.33738   0.02776715 125.1556   385.6227   37.00628   38.6665    1.688468   2.122267   -9999      -9999      3.080675  
806.5      15.67139   0.04093963 126.1419   397.4732   31.38063   43.15253   1.587587   2.114821   -9999      -9999      3.150311  
807        15.76833   0.05184019 128.1871   417.7285   27.73577   47.53241   1.539414   2.096158   -9999      -9999      3.257968  
807.5      15.75768   0.05728279 130.4046   440.8834   25.78974   48.48407   1.496129   2.059791   -9999      -9999      3.380013  
808        15.9628    0.06187223 132.4784   462.1288   24.34204   48.2979    1.443004   2.019743   -9999      -9999      3.487926  
808.5      16.36762   0.07091983 134.3683   477.9133   22.53896   49.60614   1.407005   1.987576   -9999      -9999      3.556543  
809        16.61631   0.07986249 136.6004   484.5249   20.82636   50.65254   1.37054    1.946776   -9999      -9999      3.547135  
809.5      16.6609    0.08351856 137.2969   478.6612   20.5644    51.01406   1.310615   1.8919     -9999      -9999      3.486243  
810        16.65242   0.08427191 134.9285   458.0266   22.87891   50.95583   1.268129   1.864667   -9999      -9999      3.393642  
810.5      16.32571   0.08252932 129.9591   429.4331   27.80979   47.35654   1.323726   1.907881   -9999      -9999      3.303288  
811        15.47447   0.07442254 124.4173   401.6453   33.45997   40.60192   1.549753   2.017551   -9999      -9999      3.227469  
811.5      14.66554   0.0591265  119.8911   380.7655   36.73807   35.63572   1.853445   2.136644   -9999      -9999      3.175537  
812        14.51277   0.04130315 118.8649   369.9617   35.93785   33.8479    1.953928   2.183374   -9999      -9999      3.112647  
812.5      14.90409   0.03487954 121.9564   366.3782   32.45883   34.67099   1.803033   2.138037   -9999      -9999      3.007207  
813        15.39674   0.05227964 127.9462   368.9536   29.0183    37.42956   1.624607   2.064283   -9999      -9999      2.884595  
813.5      15.73045   0.08411402 131.3921   374.8784   26.90045   40.75056   1.515937   2.013918   -9999      -9999      2.853355  
814        15.87011   0.1116282  132.9831   383.2079   25.94967   43.04213   1.472747   1.996166   -9999      -9999      2.881975  
814.5      15.92709   0.1247239  133.1064   390.0393   25.64783   43.46248   1.473353   2.00109    -9999      -9999      2.930533  
815        15.9648    0.120927   132.5329   395.7045   25.60123   42.61931   1.48031    2.006891   -9999      -9999      2.985625  
815.5      15.9538    0.1053805  131.7923   400.311    25.72987   42.76895   1.465359   1.999679   -9999      -9999      3.037391  
816        15.9249    0.08931197 131.0984   405.0227   26.13363   44.52182   1.427087   1.979713   -9999      -9999      3.089493  
816.5      16.03798   0.07749913 130.6328   406.3572   26.60249   45.94483   1.361328   1.938956   -9999      -9999      3.11065   
817        16.36357   0.06915735 130.2376   403.944    27.45885   46.49463   1.283235   1.885246   -9999      -9999      3.101714  
817.5      16.57229   0.06590254 129.8095   401.9759   30.43717   48.31987   1.267754   1.868397   -9999      -9999      3.096743  
818        16.21742   0.06422331 129.3806   400.6951   37.34229   51.52582   1.418308   1.919943   -9999      -9999      3.097316  
818.5      15.40289   0.05456855 129.1911   400.9354   46.95109   51.65486   1.729655   2.01038    -9999      -9999      3.103852  
819        14.73174   0.0327763  129.2386   401.1675   54.19879   46.4164    1.982894   2.083015   -9999      -9999      3.10439   
819.5      14.49724   0.009870755 128.6413   399.7809   54.451     39.92725   2.00835    2.120098   -9999      -9999      3.107978  
820        14.50113   -0.0008057256 127.0347   397.5218   48.86099   35.81433   1.910408   2.144619   -9999      -9999      3.129666  
820.5      14.52395   -0.00042674 124.1804   395.054    42.55711   34.32436   1.812693   2.163994   -9999      -9999      3.181952  
821        14.53381   0.002719197 120.6397   391.8498   38.09718   35.3852    1.743928   2.168877   -9999      -9999      3.248808  
821.5      14.57204   0.007294612 119.3637   388.258    34.73986   38.0245    1.700176   2.147435   -9999      -9999      3.253321  
822        14.71679   0.01496857 121.5921   384.6704   31.54259   40.11602   1.619087   2.077812   -9999      -9999      3.164517  
822.5      15.04198   0.02674368 125.0113   382.3123   27.66993   41.19727   1.448088   1.94615    -9999      -9999      3.059278  
823        15.53885   0.04432571 127.8695   380.3795   22.91309   42.82887   1.25619    1.78663    -9999      -9999      2.975412  
823.5      16.07069   0.06307482 128.6759   375.9989   19.07047   45.02323   1.127321   1.659057   -9999      -9999      2.92239   
824        16.37125   0.07070409 127.3195   367.2117   17.90009   45.85321   1.074119   1.598462   -9999      -9999      2.884246  
824.5      16.12192   0.06224104 124.2381   353.1653   19.12024   43.95597   1.090674   1.624822   -9999      -9999      2.842472  
825        15.26728   0.04791994 121.159    337.4709   21.9644    39.91709   1.218842   1.752683   -9999      -9999      2.784994  
825.5      14.24435   0.04210147 118.8374   323.7081   26.06301   36.60494   1.505344   1.958754   -9999      -9999      2.723813  
826        13.57726   0.03982905 117.9371   315.9001   30.85413   36.08564   1.813084   2.140754   -9999      -9999      2.678467  
826.5      13.34609   0.02855734 118.7253   314.9831   35.35356   36.84712   1.940534   2.20785    -9999      -9999      2.652965  
827        13.30284   0.017072   120.4165   318.8404   38.45909   36.6242    1.939146   2.201567   -9999      -9999      2.647769  
827.5      13.27996   0.01332843 121.5899   326.2809   39.72341   35.6974    1.919928   2.197551   -9999      -9999      2.683274  
828        13.25365   0.0107907  121.6028   334.4704   39.98116   35.28274   1.9122     2.207207   -9999      -9999      2.750481  
828.5      13.24464   0.005923257 120.7048   340.2806   40.43343   35.30836   1.914737   2.219001   -9999      -9999      2.819532  
