~Version
 VERS              .         3                             : CWLS LOG ASCII STANDARD - VERSION 3.0
 WRAP              .         NO                            : ONE LINE PER DEPTH STEP
 DLM               .         SPACE                         : DELIMITING CHARACTER(SPACE TAB OR COMMA)
~Well Information
#_______________________________________________________________________________
#
#PARAMETER_NAME    .UNIT     VALUE                         : DESCRIPTION
#_______________________________________________________________________________
STRT               .FEET     158                           : First reference value
STOP               .FEET     5105                          : Last reference value
STEP               .FEET     0.5                           : Step increment
NULL               .         -9999                         : Missing value
WELL               .         SY-070-1-01V                  : Well name
UWI                .UWI      1_200   ,  1_1000             : 
COMP               .COMP     ADCO                          : 
ORIGINALWELLNAME   .ORIGINALWELLNAME SY-70                         : 
FLD                .FLD      SHAH                          : 
API                .API      1_200   ,  1_1000             : 
LOC                .LOC      LATITUDE_  22* 55' 34.407'' N : 
SRVC               .SRVC     Baker ATLAS                   : 
STAT               .STAT     U.A.E                         : 
CNTY               .CNTY     ABU DHABI                     : 
DATE               .DATE     17-JAN-2013                   : 
LIC                .LIC                                    : 
PROV               .PROV                                   : 
LATI               .                                       : 
LONG               .                                       : 
GDAT               .                                       : 
CTRY               .                                       : 
~Parameter Information Block
#_______________________________________________________________________________
#
#PARAMETER_NAME    .UNIT     VALUE                         : DESCRIPTION
#_______________________________________________________________________________
SET                .         LOG_LQC_FNDR                  : 
REAL_CREATION_DATE .         Sun Mar 3 2013-10_46_33       : 
~Curve Information
#_______________________________________________________________________________
#
#LOGNAME           .UNIT     LOG_ID                        : DESCRIPTION
#_______________________________________________________________________________
MD                 .FEET                                   :  {F}
CALI               .IN                                     : Caliper {F}
DRHO               .G/C3                                   : Density correction {F}
DTC                .US/F                                   : Compressional wave slowness {F}
DTS                .US/F                                   : Shear wave slowness {F}
GR                 .GAPI                                   : Gamma ray {F}
NPHI               .PU                                     : Borehole size corrected compensated neutron porosity {F}
PE                 .B/E                                    : Photo electric cross-section {F}
RHOB               .G/C3                                   : Borehole size/mud weight corrected density {F}
RPD2               .OHMM                                   : 2 MHz 46" PH Calculated Downhole {F}
RPS2               .OHMM                                   : 2 MHz 20" PH Calculated Downhole {F}
VPVS               .                                       : Compressional to shear velocity ratio {F}
~Ascii
158.0      12.69523   -0.8333145 -9999      -9999      13.35567   54.63594   10.97658   1.956854   -9999      -9999      -9999     
158.5      12.70654   -0.8323146 -9999      -9999      13.08363   55.29399   11.02492   1.960684   -9999      -9999      -9999     
159        12.71274   -0.829943  -9999      -9999      12.92779   59.52911   11.01373   1.958257   -9999      -9999      -9999     
159.5      12.71057   -0.8255719 -9999      -9999      12.83244   75.83028   11.00676   1.95563    -9999      -9999      -9999     
160        12.70214   -0.8192006 -9999      -9999      12.69148   87.86538   11.09788   1.954315   -9999      -9999      -9999     
160.5      12.69764   -0.812202  -9999      -9999      12.72836   79.12801   11.27614   1.95057    -9999      -9999      -9999     
161        12.70181   -0.8065749 -9999      -9999      13.71616   69.16282   11.40607   1.937336   -9999      -9999      -9999     
161.5      12.70399   -0.8008863 -9999      -9999      16.1907    68.63406   11.4362    1.912795   -9999      -9999      -9999     
162        12.69713   -0.7942007 -9999      -9999      19.20054   74.36758   11.4463    1.883435   -9999      -9999      -9999     
162.5      12.68852   -0.7878889 -9999      -9999      21.01534   83.21439   11.41457   1.851376   -9999      -9999      -9999     
163        12.68189   -0.7846358 -9999      -9999      20.78831   85.78697   11.26754   1.809449   -9999      -9999      -9999     
163.5      12.67657   -0.784691  -9999      -9999      18.94278   75.45894   11.06952   1.754536   -9999      -9999      -9999     
164        12.67501   -0.7856855 -9999      -9999      16.67516   65.48501   10.95966   1.700372   -9999      -9999      -9999     
164.5      12.67638   -0.7859979 -9999      -9999      15.1638    67.39871   10.99384   1.661422   -9999      -9999      -9999     
165        12.67768   -0.7846245 -9999      -9999      14.43015   75.62307   11.11097   1.645575   -9999      -9999      -9999     
165.5      12.68281   -0.7819412 -9999      -9999      13.85164   73.27314   11.22215   1.650587   -9999      -9999      -9999     
166        12.68842   -0.7761914 -9999      -9999      13.23003   64.75005   11.27781   1.66842    -9999      -9999      -9999     
166.5      12.68861   -0.7685138 -9999      -9999      12.96189   60.71363   11.27651   1.683888   -9999      -9999      -9999     
167        12.69076   -0.7625818 -9999      -9999      13.20091   60.03986   11.26142   1.683143   -9999      -9999      -9999     
167.5      12.69887   -0.7617042 -9999      -9999      13.47975   58.41505   11.26944   1.665185   -9999      -9999      -9999     
168        12.70334   -0.7668177 -9999      -9999      13.4204    56.40235   11.24739   1.63948    -9999      -9999      -9999     
168.5      12.69986   -0.7772424 -9999      -9999      13.50456   56.15498   11.13732   1.610427   -9999      -9999      -9999     
169        12.69527   -0.7899142 -9999      -9999      14.17567   56.23811   11.00118   1.581815   -9999      -9999      -9999     
169.5      12.69539   -0.8001537 -9999      -9999      14.97835   54.31538   10.92642   1.56897    -9999      -9999      -9999     
170        12.70013   -0.8084794 -9999      -9999      15.22626   53.22399   10.87258   1.587014   -9999      -9999      -9999     
170.5      12.70542   -0.8268259 -9999      -9999      15.07644   56.78814   10.75249   1.627599   -9999      -9999      -9999     
171        12.70974   -0.8718337 -9999      -9999      14.85524   64.58132   10.70732   1.656288   -9999      -9999      -9999     
171.5      12.70891   -0.9384252 -9999      -9999      14.39239   71.0208    10.83116   1.635315   -9999      -9999      -9999     
172        12.72181   -0.9413546 -9999      -9999      13.86127   72.95082   10.02166   1.583854   -9999      -9999      -9999     
172.5      12.8473    -0.776475  -9999      -9999      14.40809   73.17551   7.355595   1.595942   -9999      -9999      -9999     
173        13.39578   -0.5062312 -9999      -9999      16.71016   74.29636   4.467336   1.651588   -9999      -9999      -9999     
173.5      14.78844   -0.2624903 -9999      -9999      20.0152    68.86758   2.686969   1.672761   -9999      -9999      -9999     
174        16.66485   -0.09577705 -9999      -9999      22.98498   57.86056   1.848408   1.661554   -9999      -9999      -9999     
174.5      17.59662   0.01179944 -9999      -9999      24.88027   50.20718   1.519941   1.66991    -9999      -9999      -9999     
175        16.98148   0.08609629 -9999      -9999      25.75062   48.33432   1.472378   1.729779   -9999      -9999      -9999     
175.5      15.94899   0.1342713  -9999      -9999      25.84295   47.75099   1.558328   1.833031   -9999      -9999      -9999     
176        15.49303   0.1585201  -9999      -9999      25.63395   46.01091   1.659692   1.94575    -9999      -9999      -9999     
176.5      15.50373   0.1514559  -9999      -9999      25.77732   45.11893   1.729531   2.011449   -9999      -9999      -9999     
177        15.90033   0.1198329  -9999      -9999      26.4785    49.45897   1.73382    2.015356   -9999      -9999      -9999     
177.5      16.50723   0.08679522 -9999      -9999      27.26151   64.46301   1.685935   2.004177   -9999      -9999      -9999     
178        16.65194   0.06266946 -9999      -9999      27.78973   81.9234    1.681222   2.010748   -9999      -9999      -9999     
178.5      16.18138   0.04160608 -9999      -9999      27.91383   76.40252   1.763672   2.030131   -9999      -9999      -9999     
179        15.70819   0.01991402 -9999      -9999      27.84082   64.31925   1.844324   2.045159   -9999      -9999      -9999     
179.5      15.57678   0.0006894809 -9999      -9999      27.98344   58.32789   1.839235   2.048226   -9999      -9999      -9999     
180        15.61053   -0.01179882 -9999      -9999      28.55606   52.97288   1.769413   2.04316    -9999      -9999      -9999     
180.5      15.67469   -0.02046927 -9999      -9999      29.36808   46.95663   1.693741   2.033432   -9999      -9999      -9999     
181        15.76477   -0.02709812 -9999      -9999      29.98613   45.22756   1.647277   2.021768   -9999      -9999      -9999     
181.5      15.88394   -0.03241977 -9999      -9999      29.707     47.69791   1.622402   2.007697   -9999      -9999      -9999     
182        16.01312   -0.03534834 -9999      -9999      28.17579   49.37841   1.594669   1.994797   -9999      -9999      -9999     
182.5      16.17499   -0.0345986 -9999      -9999      26.04568   48.69607   1.549198   1.98624    -9999      -9999      -9999     
183        16.46848   -0.03054954 -9999      -9999      24.49783   48.5114    1.484187   1.984054   -9999      -9999      -9999     
183.5      16.90121   -0.02487953 -9999      -9999      24.07362   51.21468   1.412641   1.984      -9999      -9999      -9999     
184        17.20746   -0.01888745 -9999      -9999      24.45369   57.14252   1.376711   1.983307   -9999      -9999      -9999     
184.5      17.15346   -0.0142747 -9999      -9999      25.07669   61.62888   1.412475   1.983702   -9999      -9999      -9999     
185        16.92085   -0.01095206 -9999      -9999      25.38976   59.00439   1.504724   1.982604   -9999      -9999      -9999     
185.5      16.86648   -0.003780305 -9999      -9999      24.74999   54.56648   1.571788   1.963975   -9999      -9999      -9999     
186        17.08499   0.01696756 -9999      -9999      22.65605   55.05366   1.513306   1.911805   -9999      -9999      -9999     
186.5      17.562     0.04768026 -9999      -9999      19.27173   66.27452   1.319499   1.828696   -9999      -9999      -9999     
187        18.432     0.06673277 -9999      -9999      15.42446   95.0881    1.077585   1.707085   -9999      -9999      -9999     
187.5      19.64036   0.05074362 -9999      -9999      12.09432   106.0051   0.8702837  1.534967   -9999      -9999      -9999     
188        20.7901    0.00823092 -9999      -9999      9.643828   86.86823   0.7283905  1.348538   -9999      -9999      -9999     
