~Version
 VERS              .         3                             : CWLS LOG ASCII STANDARD - VERSION 3.0
 WRAP              .         NO                            : ONE LINE PER DEPTH STEP
 DLM               .         SPACE                         : DELIMITING CHARACTER(SPACE TAB OR COMMA)
~Well Information
#_______________________________________________________________________________
#
#PARAMETER_NAME    .UNIT     VALUE                         : DESCRIPTION
#_______________________________________________________________________________
STRT               .FEET     158                           : First reference value
STOP               .FEET     5105                          : Last reference value
STEP               .FEET     0.5                           : Step increment
NULL               .         -9999                         : Missing value
WELL               .         SY-070-1-01V                  : Well name
UWI                .UWI      1_200   ,  1_1000             : 
COMP               .COMP     ADCO                          : 
ORIGINALWELLNAME   .ORIGINALWELLNAME SY-70                         : 
FLD                .FLD      SHAH                          : 
API                .API      1_200   ,  1_1000             : 
LOC                .LOC      LATITUDE_  22* 55' 34.407'' N : 
SRVC               .SRVC     Baker ATLAS                   : 
STAT               .STAT     U.A.E                         : 
CNTY               .CNTY     ABU DHABI                     : 
DATE               .DATE     17-JAN-2013                   : 
LIC                .LIC                                    : 
PROV               .PROV                                   : 
LATI               .                                       : 
LONG               .                                       : 
GDAT               .                                       : 
CTRY               .                                       : 
~Parameter Information Block
#_______________________________________________________________________________
#
#PARAMETER_NAME    .UNIT     VALUE                         : DESCRIPTION
#_______________________________________________________________________________
SET                .         LOG_LQC_FNDR                  : 
REAL_CREATION_DATE .         Sun Mar 3 2013-10_46_33       : 
~Curve Information
#_______________________________________________________________________________
#
#LOGNAME           .UNIT     LOG_ID                        : DESCRIPTION
#_______________________________________________________________________________
MD                 .FEET                                   :  {F}
CALI               .IN                                     : Caliper {F}
DRHO               .G/C3                                   : Density correction {F}
DTC                .US/F                                   : Compressional wave slowness {F}
DTS                .US/F                                   : Shear wave slowness {F}
GR                 .GAPI                                   : Gamma ray {F}
NPHI               .PU                                     : Borehole size corrected compensated neutron porosity {F}
PE                 .B/E                                    : Photo electric cross-section {F}
RHOB               .G/C3                                   : Borehole size/mud weight corrected density {F}
RPD2               .OHMM                                   : 2 MHz 46" PH Calculated Downhole {F}
RPS2               .OHMM                                   : 2 MHz 20" PH Calculated Downhole {F}
VPVS               .                                       : Compressional to shear velocity ratio {F}
~Ascii
# ...
493.5      14.07071   -0.03051975 118.1095   258.5812   40.19498   42.50614   2.177737   2.099684   -9999      -9999      2.188987  
494        14.03607   -0.04674486 114.9847   247.7841   38.28276   44.42512   2.236677   2.064026   -9999      -9999      2.15491   
494.5      14.02743   -0.05377615 112.9407   238.7331   36.4428    48.13839   2.22961    2.044825   -9999      -9999      2.113757  
495        14.03217   -0.05103106 111.6528   233.819    36.27066   52.60132   2.177065   2.043877   -9999      -9999      2.094519  
495.5      14.04277   -0.04199738 110.8086   233.961    37.56162   53.68642   2.137163   2.052463   -9999      -9999      2.111879  
496        14.04892   -0.03355763 110.2171   238.7347   40.21878   50.09574   2.170368   2.065111   -9999      -9999      2.166446  
496.5      14.04915   -0.03064763 110.3936   247.7767   43.62608   47.96908   2.252198   2.072588   -9999      -9999      2.24435   
497        14.05901   -0.03641601 111.1167   255.588    46.12077   48.62302   2.268339   2.060338   -9999      -9999      2.300535  
497.5      14.07267   -0.04691929 111.5805   259.4056   46.39998   47.87616   2.193766   2.041597   -9999      -9999      2.325183  
498        14.06901   -0.05295984 111.7134   259.6988   45.63271   45.61827   2.126479   2.041749   -9999      -9999      2.324401  
498.5      14.05799   -0.05179961 111.7568   257.2297   45.04901   47.5929    2.133705   2.06963    -9999      -9999      2.301862  
499        14.0761    -0.04315796 112.3129   252.2015   43.47075   52.50056   2.165394   2.105471   -9999      -9999      2.245756  
499.5      14.12887   -0.03094257 111.9832   244.8816   39.56081   52.48032   2.137077   2.119084   -9999      -9999      2.187081  
500        14.17417   -0.01805939 111.438    239.3761   34.48793   48.19351   2.079203   2.114102   -9999      -9999      2.14787   
500.5      14.18485   -0.006870405 111.3121   238.7202   30.78703   48.27127   2.061933   2.11668    -9999      -9999      2.144564  
501        14.17889   -0.00139404 112.7848   244.2259   30.12921   54.05898   2.082103   2.131608   -9999      -9999      2.165408  
501.5      14.17947   -0.004436175 114.622    250.1864   31.6429    60.20196   2.078223   2.13799    -9999      -9999      2.182683  
502        14.18779   -0.01207551 116.1665   253.5053   32.63338   59.9841    2.050198   2.126709   -9999      -9999      2.182229  
502.5      14.19592   -0.01698357 116.334    250.6841   31.84218   55.6916    2.048067   2.117013   -9999      -9999      2.155255  
503        14.19407   -0.0166461 115.8416   246.3787   30.18353   51.04783   2.054454   2.123097   -9999      -9999      2.127122  
503.5      14.18526   -0.01563927 115.3616   246.9072   29.21683   46.87334   2.037253   2.13206    -9999      -9999      2.140522  
504        14.18283   -0.0192869 114.909    249.5281   29.74581   45.85798   2.02928    2.129741   -9999      -9999      2.171255  
504.5      14.18662   -0.02590967 113.8167   252.2764   31.16932   48.99571   2.051121   2.112095   -9999      -9999      2.216494  
505        14.18906   -0.03426554 112.2441   251.9505   32.84782   53.7659    2.077354   2.08304    -9999      -9999      2.244296  
505.5      14.19036   -0.03891527 111.022    253.9954   34.4213    58.17921   2.089282   2.047026   -9999      -9999      2.287469  
506        14.19633   -0.03711831 110.5412   260.071    34.72243   62.07661   2.081504   2.015058   -9999      -9999      2.352791  
506.5      14.20107   -0.02866418 110.4013   264.8323   32.9094    65.71413   2.049978   2.002021   -9999      -9999      2.399     
507        14.20257   -0.01962013 110.9799   269.0868   30.11675   65.24638   2.006886   2.007391   -9999      -9999      2.424442  
507.5      14.21068   -0.0152741 111.9201   273.2304   28.39656   58.34492   1.989053   2.016571   -9999      -9999      2.441147  
508        14.22442   -0.01671458 114.0403   275.8777   29.23616   51.17641   2.025888   2.024189   -9999      -9999      2.419378  
508.5      14.23205   -0.01869967 115.6886   277.7573   32.51254   48.22836   2.087762   2.038685   -9999      -9999      2.400745  
509        14.23296   -0.01696119 117.0819   277.5756   36.10531   47.24006   2.100388   2.059634   -9999      -9999      2.371148  
509.5      14.23436   -0.01345565 117.2448   277.1411   38.19225   47.44246   2.045295   2.074577   -9999      -9999      2.364114  
510        14.21963   -0.01147334 116.8786   275.022    38.98457   48.68962   1.986137   2.079527   -9999      -9999      2.353229  
510.5      14.16887   -0.01001501 115.9832   269.9018   39.31183   48.37268   1.971045   2.080955   -9999      -9999      2.327121  
511        14.10231   -0.01032017 114.6798   263.1839   39.51485   46.3041    1.992518   2.080225   -9999      -9999      2.294516  
511.5      14.06057   -0.01188461 113.3448   256.3593   39.18295   46.30593   2.029991   2.079172   -9999      -9999      2.261361  
512        14.05032   -0.01490155 111.7574   250.4585   37.46605   50.21455   2.088335   2.087344   -9999      -9999      2.241006  
512.5      14.04225   -0.01791859 110.3949   246.2869   34.18357   54.81618   2.159104   2.108721   -9999      -9999      2.230626  
513        14.02927   -0.02091839 110.3883   246.0031   30.84513   55.62852   2.17047    2.125987   -9999      -9999      2.228458  
513.5      14.03021   -0.02354552 112.7219   250.7188   29.2135    55.45555   2.094294   2.125722   -9999      -9999      2.224429  
514        14.0519    -0.02399347 117.3288   262.0121   29.02685   59.9544    2.033917   2.118507   -9999      -9999      2.23281   
514.5      14.07238   -0.02039329 121.9336   277.5852   29.17701   67.16428   2.077304   2.12241    -9999      -9999      2.276203  
515        14.06496   -0.01609335 124.8163   291.4417   29.98752   67.06681   2.203449   2.12965    -9999      -9999      2.334565  
515.5      14.03005   -0.01470054 125.5097   297.7883   31.9469    59.84252   2.335731   2.123895   -9999      -9999      2.372683  
516        13.97859   -0.0169763 123.2856   292.8201   34.22275   58.53441   2.438039   2.106632   -9999      -9999      2.374741  
516.5      13.91241   -0.01895796 116.4915   274.0096   35.4036    66.42152   2.550575   2.098527   -9999      -9999      2.351163  
517        13.83832   -0.01826411 105.8356   242.7682   33.32821   76.38131   2.749724   2.118497   -9999      -9999      2.29158   
517.5      13.77331   -0.01598024 93.2207    205.9389   26.63297   82.4544    3.081379   2.168419   -9999      -9999      2.205801  
518        13.72161   -0.01406562 80.96184   172.0547   17.4662    87.69885   3.483852   2.231555   -9999      -9999      2.124344  
518.5      13.68072   -0.01509011 72.25819   151.3079   10.04896   90.04132   3.775752   2.282761   -9999      -9999      2.093736  
519        13.65436   -0.01806873 66.22868   138.1448   6.375458   90.95708   3.847421   2.307368   -9999      -9999      2.086162  
519.5      13.64111   -0.02070545 63.31556   132.5479   5.339087   100.8787   3.811306   2.311681   -9999      -9999      2.093589  
520        13.63327   -0.02238648 61.7023    129.5953   5.062775   117.5989   3.807567   2.311409   -9999      -9999      2.1002    
520.5      13.62342   -0.02377385 60.73688   128.683    4.726473   123.0204   3.839851   2.313138   -9999      -9999      2.119001  
521        13.60664   -0.0263909 59.83596   129.0269   4.649956   103.686    3.839638   2.316914   -9999      -9999      2.156395  
521.5      13.58533   -0.02929655 60.31232   131.5616   5.139482   72.1898    3.768502   2.323307   -9999      -9999      2.181685  
522        13.55794   -0.02924668 63.4334    137.6102   6.18767    55.43972   3.633293   2.332423   -9999      -9999      2.169514  
522.5      13.51922   -0.02692673 68.87446   149.3056   8.505102   48.10991   3.439086   2.338262   -9999      -9999      2.167282  
523        13.47835   -0.02436136 76.55145   165.9626   13.21637   45.67469   3.17482    2.326416   -9999      -9999      2.168271  
523.5      13.4528    -0.02384848 86.24635   186.423    19.76173   46.87117   2.865435   2.281102   -9999      -9999      2.16076   
