~Version
 VERS              .         3                             : CWLS LOG ASCII STANDARD - VERSION 3.0
 WRAP              .         NO                            : ONE LINE PER DEPTH STEP
 DLM               .         SPACE                         : DELIMITING CHARACTER(SPACE TAB OR COMMA)
~Well Information
#_______________________________________________________________________________
#
#PARAMETER_NAME    .UNIT     VALUE                         : DESCRIPTION
#_______________________________________________________________________________
STRT               .FEET     158                           : First reference value
STOP               .FEET     5105                          : Last reference value
STEP               .FEET     0.5                           : Step increment
NULL               .         -9999                         : Missing value
WELL               .         SY-070-1-01V                  : Well name
UWI                .UWI      1_200   ,  1_1000             : 
COMP               .COMP     ADCO                          : 
ORIGINALWELLNAME   .ORIGINALWELLNAME SY-70                         : 
FLD                .FLD      SHAH                          : 
API                .API      1_200   ,  1_1000             : 
LOC                .LOC      LATITUDE_  22* 55' 34.407'' N : 
SRVC               .SRVC     Baker ATLAS                   : 
STAT               .STAT     U.A.E                         : 
CNTY               .CNTY     ABU DHABI                     : 
DATE               .DATE     17-JAN-2013                   : 
LIC                .LIC                                    : 
PROV               .PROV                                   : 
LATI               .                                       : 
LONG               .                                       : 
GDAT               .                                       : 
CTRY               .                                       : 
~Parameter Information Block
#_______________________________________________________________________________
#
#PARAMETER_NAME    .UNIT     VALUE                         : DESCRIPTION
#_______________________________________________________________________________
SET                .         LOG_LQC_FNDR                  : 
REAL_CREATION_DATE .         Sun Mar 3 2013-10_46_33       : 
~Curve Information
#_______________________________________________________________________________
#
#LOGNAME           .UNIT     LOG_ID                        : DESCRIPTION
#_______________________________________________________________________________
MD                 .FEET                                   :  {F}
CALI               .IN                                     : Caliper {F}
DRHO               .G/C3                                   : Density correction {F}
DTC                .US/F                                   : Compressional wave slowness {F}
DTS                .US/F                                   : Shear wave slowness {F}
GR                 .GAPI                                   : Gamma ray {F}
NPHI               .PU                                     : Borehole size corrected compensated neutron porosity {F}
PE                 .B/E                                    : Photo electric cross-section {F}
RHOB               .G/C3                                   : Borehole size/mud weight corrected density {F}
RPD2               .OHMM                                   : 2 MHz 46" PH Calculated Downhole {F}
RPS2               .OHMM                                   : 2 MHz 20" PH Calculated Downhole {F}
VPVS               .                                       : Compressional to shear velocity ratio {F}
~Ascii
# ...
1774.5     12.77567   -0.01726083 98.98073   199.4713   19.75306   39.06101   3.137685   2.267163   -9999      -9999      2.015209  
1775       12.7841    -0.01881674 96.32861   195.5168   18.78094   34.87588   3.259197   2.288238   -9999      -9999      2.029829  
1775.5     12.7891    -0.0218743 94.00854   192.933    17.54943   32.94093   3.316063   2.305781   -9999      -9999      2.052666  
1776       12.78631   -0.02484104 92.62812   191.4291   16.09814   33.14177   3.34851    2.316807   -9999      -9999      2.067045  
1776.5     12.78159   -0.02680716 92.18345   190.5243   14.80371   33.74434   3.408314   2.321864   -9999      -9999      2.067121  
1777       12.78157   -0.02724903 92.10834   189.8692   14.08744   33.39891   3.477661   2.322476   -9999      -9999      2.061499  
1777.5     12.78726   -0.02593016 91.79012   189.279    14.07073   32.22315   3.518706   2.320668   -9999      -9999      2.062145  
1778       12.7953    -0.02392967 91.0371    188.8193   14.61314   30.96314   3.536698   2.317632   -9999      -9999      2.074306  
1778.5     12.79906   -0.02245411 90.00394   188.3251   15.52566   30.42788   3.542905   2.314383   -9999      -9999      2.092715  
1779       12.79605   -0.02147471 89.16341   187.9272   16.55946   30.70875   3.524464   2.314292   -9999      -9999      2.107696  
1779.5     12.79397   -0.0199282 89.03748   187.8564   17.36962   31.13169   3.486163   2.320302   -9999      -9999      2.109665  
1780       12.79852   -0.01819068 89.7971    188.2372   17.85563   31.42391   3.454577   2.329346   -9999      -9999      2.096293  
1780.5     12.80287   -0.01696355 91.03084   189.0482   18.24596   31.77732   3.425169   2.335675   -9999      -9999      2.077064  
1781       12.79792   -0.01596318 92.29507   189.9577   18.56382   32.3144    3.365253   2.337773   -9999      -9999      2.058562  
1781.5     12.78467   -0.01522657 93.20224   191.0047   18.66979   33.41202   3.282969   2.338      -9999      -9999      2.049582  
1782       12.77076   -0.01552773 93.40819   191.9145   18.74494   35.06173   3.232812   2.338      -9999      -9999      2.054637  
1782.5     12.76121   -0.01707521 92.96047   192.0969   18.8023    36.15006   3.231602   2.338      -9999      -9999      2.06647   
1783       12.75638   -0.01854719 92.14509   191.4435   18.42949   35.90399   3.241528   2.339321   -9999      -9999      2.077661  
1783.5     12.7534    -0.01873556 91.35983   190.2933   17.5693    35.07697   3.261153   2.342926   -9999      -9999      2.083095  
1784       12.75143   -0.01822627 90.96905   189.6318   16.58167   34.85087   3.348062   2.345301   -9999      -9999      2.084794  
1784.5     12.75314   -0.01826475 91.0919    190.0582   15.68249   35.02572   3.503613   2.342825   -9999      -9999      2.086321  
1785       12.75585   -0.01930383 91.46552   191.0152   15.04137   34.51207   3.617463   2.337788   -9999      -9999      2.08806   
1785.5     12.75223   -0.02107814 91.72636   191.5181   14.93538   33.77065   3.60574    2.334413   -9999      -9999      2.087709  
1786       12.74467   -0.02360961 91.72125   191.0559   15.44014   34.35169   3.537871   2.33243    -9999      -9999      2.082973  
1786.5     12.74335   -0.02689335 91.4688    190.1463   16.28369   35.40326   3.525074   2.329881   -9999      -9999      2.078904  
1787       12.74666   -0.02932282 91.00453   189.3031   17.16928   34.6365    3.561378   2.327943   -9999      -9999      2.080126  
1787.5     12.74745   -0.02920191 90.34888   188.4013   18.04375   32.71334   3.580656   2.329104   -9999      -9999      2.085258  
1788       12.75046   -0.02634598 89.49129   187.2657   18.76023   32.13857   3.579547   2.33267    -9999      -9999      2.092824  
1788.5     12.75893   -0.02232886 88.65623   186.4848   18.83179   33.30199   3.59964    2.335323   -9999      -9999      2.103772  
1789       12.76116   -0.01914343 88.23979   186.5665   18.22922   34.24837   3.64997    2.335733   -9999      -9999      2.114385  
1789.5     12.74767   -0.01718422 88.26386   187.3292   17.78721   33.38921   3.691295   2.335226   -9999      -9999      2.122289  
1790       12.72873   -0.01622543 88.5875    188.513    18.25677   31.31982   3.683479   2.333132   -9999      -9999      2.127956  
1790.5     12.72254   -0.01680134 88.98405   189.9237   19.3325    29.63902   3.643294   2.325304   -9999      -9999      2.134289  
1791       12.73132   -0.01859143 89.35622   191.757    19.95748   28.99468   3.624651   2.310259   -9999      -9999      2.145855  
1791.5     12.74134   -0.01977483 89.91689   194.3162   19.82699   29.02164   3.648956   2.291421   -9999      -9999      2.160902  
1792       12.74183   -0.02080333 90.72413   197.4306   20.00038   29.47469   3.69808    2.269243   -9999      -9999      2.176147  
1792.5     12.73246   -0.02473664 91.51871   200.7455   21.46222   30.4989    3.743211   2.236887   -9999      -9999      2.193549  
1793       12.72023   -0.03319338 91.97797   203.6333   23.94131   32.11444   3.762821   2.191585   -9999      -9999      2.213936  
1793.5     12.71387   -0.04371672 92.20032   205.8265   26.64413   34.01414   3.759029   2.144794   -9999      -9999      2.232471  
1794       12.71705   -0.05124602 92.72342   207.773    29.06646   35.64312   3.743986   2.115372   -9999      -9999      2.240915  
1794.5     12.72487   -0.05108856 93.73695   209.318    30.64388   36.23083   3.714916   2.114479   -9999      -9999      2.233085  
1795       12.7288    -0.04275146 94.58633   210.2274   30.62447   35.67546   3.665982   2.136269   -9999      -9999      2.222388  
1795.5     12.72682   -0.03122927 94.29494   210.6797   28.97969   35.46989   3.592813   2.160997   -9999      -9999      2.234328  
1796       12.72767   -0.02189882 92.95368   210.6502   26.5348    36.84687   3.481761   2.172455   -9999      -9999      2.266429  
1796.5     12.74463   -0.01577534 91.7206    209.812    23.91275   38.09121   3.348876   2.173975   -9999      -9999      2.287478  
1797       12.78151   -0.01158266 91.04591   207.7043   21.5232    36.85437   3.26412    2.182383   -9999      -9999      2.281236  
1797.5     12.82388   -0.009448464 90.77142   204.2242   20.04215   34.15661   3.28699    2.209089   -9999      -9999      2.249626  
1798       12.85325   -0.01008005 90.46656   200.1505   19.67687   32.48072   3.406154   2.250066   -9999      -9999      2.212121  
1798.5     12.86743   -0.01372489 89.71303   196.4317   20.01959   32.3134    3.551322   2.289404   -9999      -9999      2.18933   
1799       12.87343   -0.01900801 88.73865   193.7226   20.65899   32.79527   3.651651   2.310272   -9999      -9999      2.182944  
1799.5     12.87392   -0.02288045 87.97649   192.5676   20.94692   33.8609    3.702411   2.307709   -9999      -9999      2.189008  
1800       12.87217   -0.02318784 87.67617   193.0905   20.41144   36.27857   3.751997   2.290792   -9999      -9999      2.202458  
1800.5     12.87123   -0.02085861 88.02094   194.6635   19.8836    38.91381   3.80267    2.270281   -9999      -9999      2.211499  
1801       12.86991   -0.01812896 88.92009   196.0062   20.61842   38.96142   3.80744    2.252763   -9999      -9999      2.204263  
1801.5     12.87197   -0.01644727 89.92458   196.5892   22.38466   36.59737   3.769429   2.243779   -9999      -9999      2.186048  
1802       12.88108   -0.01654285 90.6162    196.5246   23.81005   34.39576   3.73642    2.24581    -9999      -9999      2.168485  
1802.5     12.88628   -0.01809635 90.73142   195.7724   24.22138   32.88968   3.726971   2.257751   -9999      -9999      2.157372  
1803       12.87969   -0.01955343 90.27974   194.4383   24.20564   31.45354   3.739805   2.276243   -9999      -9999      2.153437  
1803.5     12.87336   -0.01972793 89.44349   192.7379   24.54553   30.54768   3.772186   2.294577   -9999      -9999      2.154642  
1804       12.87471   -0.01922315 88.63479   191.0654   25.22678   30.32376   3.797253   2.304778   -9999      -9999      2.155474  
1804.5     12.8746    -0.0187276 88.0652    189.9344   25.69743   29.94003   3.792594   2.304267   -9999      -9999      2.156607  
