~Version
 VERS              .         3                             : CWLS LOG ASCII STANDARD - VERSION 3.0
 WRAP              .         NO                            : ONE LINE PER DEPTH STEP
 DLM               .         SPACE                         : DELIMITING CHARACTER(SPACE TAB OR COMMA)
~Well Information
#_______________________________________________________________________________
#
#PARAMETER_NAME    .UNIT     VALUE                         : DESCRIPTION
#_______________________________________________________________________________
STRT               .FEET     158                           : First reference value
STOP               .FEET     5105                          : Last reference value
STEP               .FEET     0.5                           : Step increment
NULL               .         -9999                         : Missing value
WELL               .         SY-070-1-01V                  : Well name
UWI                .UWI      1_200   ,  1_1000             : 
COMP               .COMP     ADCO                          : 
ORIGINALWELLNAME   .ORIGINALWELLNAME SY-70                         : 
FLD                .FLD      SHAH                          : 
API                .API      1_200   ,  1_1000             : 
LOC                .LOC      LATITUDE_  22* 55' 34.407'' N : 
SRVC               .SRVC     Baker ATLAS                   : 
STAT               .STAT     U.A.E                         : 
CNTY               .CNTY     ABU DHABI                     : 
DATE               .DATE     17-JAN-2013                   : 
LIC                .LIC                                    : 
PROV               .PROV                                   : 
LATI               .                                       : 
LONG               .                                       : 
GDAT               .                                       : 
CTRY               .                                       : 
~Parameter Information Block
#_______________________________________________________________________________
#
#PARAMETER_NAME    .UNIT     VALUE                         : DESCRIPTION
#_______________________________________________________________________________
SET                .         LOG_LQC_FNDR                  : 
REAL_CREATION_DATE .         Sun Mar 3 2013-10_46_33       : 
~Curve Information
#_______________________________________________________________________________
#
#LOGNAME           .UNIT     LOG_ID                        : DESCRIPTION
#_______________________________________________________________________________
MD                 .FEET                                   :  {F}
CALI               .IN                                     : Caliper {F}
DRHO               .G/C3                                   : Density correction {F}
DTC                .US/F                                   : Compressional wave slowness {F}
DTS                .US/F                                   : Shear wave slowness {F}
GR                 .GAPI                                   : Gamma ray {F}
NPHI               .PU                                     : Borehole size corrected compensated neutron porosity {F}
PE                 .B/E                                    : Photo electric cross-section {F}
RHOB               .G/C3                                   : Borehole size/mud weight corrected density {F}
RPD2               .OHMM                                   : 2 MHz 46" PH Calculated Downhole {F}
RPS2               .OHMM                                   : 2 MHz 20" PH Calculated Downhole {F}
VPVS               .                                       : Compressional to shear velocity ratio {F}
~Ascii
# ...
3390       12.48      -0.002944662 86.96024   195.6672   13.61201   33.89668   3.178065   2.147652   -9999      -9999      2.250146  
3390.5     12.54196   -0.01062832 84.41949   192.2633   13.26312   32.15739   3.365995   2.187463   -9999      -9999      2.278227  
3391       12.6049    -0.009214059 81.61449   189.9019   12.83002   30.30441   3.53793    2.204721   -9999      -9999      2.327946  
3391.5     12.63401   0.002392593 79.05385   189.2493   12.62298   30.17852   3.595034   2.179527   -9999      -9999      2.394723  
3392       12.62095   0.02644276 77.43832   190.6109   12.77312   31.83188   3.536746   2.134875   -9999      -9999      2.46178   
3392.5     12.59434   0.05728292 77.80324   192.6793   12.86526   32.79438   3.408967   2.103547   -9999      -9999      2.476824  
3393       12.60763   0.07926115 79.5479    192.3543   12.51278   31.5607    3.289097   2.086889   -9999      -9999      2.418479  
3393.5     12.69498   0.08199924 80.5733    188.0174   12.00971   29.82664   3.234845   2.071954   -9999      -9999      2.334487  
3394       12.82041   0.07196876 82.64625   182.768    11.90096   29.53444   3.224417   2.064651   -9999      -9999      2.214458  
3394.5     12.90408   0.0634841  84.21886   179.3846   12.52614   30.69422   3.214148   2.084931   -9999      -9999      2.130507  
3395       12.91057   0.06090724 85.14341   178.7319   13.86909   32.23198   3.207701   2.133014   -9999      -9999      2.100473  
3395.5     12.87453   0.05639222 84.61237   180.8288   15.3713    32.98279   3.204447   2.180884   -9999      -9999      2.138994  
3396       12.82546   0.04587397 83.04797   184.4132   16.43151   32.39914   3.164997   2.210731   -9999      -9999      2.220578  
3396.5     12.73652   0.03678663 83.81007   188.0772   16.77255   31.06352   3.100932   2.234745   -9999      -9999      2.244269  
3397       12.60643   0.0336006  86.06002   191.2786   16.29306   30.37867   3.104345   2.258145   -9999      -9999      2.223168  
3397.5     12.5101    0.03109317 87.629     194.2145   15.33884   30.96765   3.224586   2.2679     -9999      -9999      2.216257  
3398       12.49474   0.02669238 86.92616   195.8738   14.63786   31.33885   3.401897   2.264992   -9999      -9999      2.253565  
3398.5     12.52577   0.02269404 85.0743    194.0994   14.66733   30.0781    3.525386   2.263604   -9999      -9999      2.281524  
3399       12.56476   0.01818979 82.24399   187.9881   15.33269   28.07853   3.513717   2.267008   -9999      -9999      2.285273  
3399.5     12.58456   0.01189062 78.56348   178.7486   16.02143   26.1399    3.383837   2.274024   -9999      -9999      2.275752  
3400       12.54806   0.00739965 72.95558   169.3307   16.18484   23.83762   3.24692    2.291445   -9999      -9999      2.325269  
3400.5     12.46589   0.007201179 67.23562   162.8916   16.16311   22.01237   3.219283   2.317029   -9999      -9999      2.425345  
3401       12.4032    0.007392709 64.23552   159.8744   16.54282   22.23683   3.32488    2.332486   -9999      -9999      2.490267  
3401.5     12.39826   0.003790039 64.87493   157.7841   17.14634   24.43331   3.486114   2.328285   -9999      -9999      2.435411  
3402       12.43137   -0.00200667 68.16483   155.571    17.91678   26.78713   3.626924   2.321036   -9999      -9999      2.285148  
3402.5     12.47246   -0.006704853 70.23258   154.9704   19.18381   27.04002   3.759712   2.331131   -9999      -9999      2.206877  
3403       12.5082    -0.01071656 69.52365   156.6852   20.55488   24.80248   3.913709   2.347051   -9999      -9999      2.2551    
3403.5     12.51958   -0.01700873 68.05653   159.4989   21.45258   22.37468   4.020817   2.339127   -9999      -9999      2.344599  
3404       12.48762   -0.02359669 69.40825   161.9137   22.34666   21.8075    4.003428   2.307774   -9999      -9999      2.335936  
3404.5     12.44302   -0.02640941 74.77579   164.5971   23.53828   22.97916   3.885051   2.278154   -9999      -9999      2.207036  
3405       12.45114   -0.02972907 81.4184    170.0861   24.10609   25.0178    3.710482   2.25099    -9999      -9999      2.09111   
3405.5     12.53202   -0.03860842 86.93628   177.9214   23.52979   27.83079   3.503922   2.209531   -9999      -9999      2.046915  
3406       12.64723   -0.04696977 91.06981   185.8723   22.44173   31.57249   3.33793    2.165141   -9999      -9999      2.04062   
3406.5     12.75022   -0.04456234 93.15942   192.4466   21.39766   35.02362   3.301434   2.148193   -9999      -9999      2.06579   
3407       12.81207   -0.03187662 91.9018    193.6169   20.5643    36.31763   3.383179   2.166412   -9999      -9999      2.107635  
3407.5     12.813     -0.01678507 87.46352   186.383    20.49819   35.24139   3.503606   2.209861   -9999      -9999      2.131688  
3408       12.74188   -0.003786997 81.88312   176.8402   21.77557   32.70398   3.634719   2.273739   -9999      -9999      2.162165  
3408.5     12.62352   0.005255478 75.94904   171.2323   23.78942   29.40574   3.746461   2.343825   -9999      -9999      2.259854  
3409       12.53812   0.004258529 70.26232   167.6991   24.98673   26.70123   3.768032   2.381304   -9999      -9999      2.390296  
3409.5     12.55976   -0.007317169 66.97457   165.6568   24.67844   25.83317   3.717963   2.363674   -9999      -9999      2.47456   
3410       12.66263   -0.02018557 68.02727   166.4112   23.76836   26.63799   3.661292   2.315267   -9999      -9999      2.448534  
3410.5     12.74214   -0.0274944 72.885     171.0002   23.50099   28.21766   3.593904   2.269793   -9999      -9999      2.349572  
3411       12.73256   -0.02970166 79.11446   176.6785   24.41988   29.86995   3.510145   2.239636   -9999      -9999      2.238024  
3411.5     12.66432   -0.03038805 85.27205   178.3894   26.43102   31.12695   3.45579    2.228255   -9999      -9999      2.096586  
3412       12.6055    -0.02896867 90.30955   174.9574   29.22644   31.54439   3.496158   2.246116   -9999      -9999      1.940241  
3412.5     12.59524   -0.02317712 92.60094   168.9229   32.79217   31.28935   3.645368   2.295141   -9999      -9999      1.824283  
3413       12.63198   -0.01461299 90.98065   164.0704   36.71155   30.94486   3.790941   2.346538   -9999      -9999      1.804149  
3413.5     12.67978   -0.008508546 86.28539   161.9066   39.05721   30.76323   3.809684   2.363709   -9999      -9999      1.879278  
3414       12.68965   -0.006613918 81.99124   162.6308   38.45573   30.94912   3.720136   2.339829   -9999      -9999      1.984483  
3414.5     12.64085   -0.007613966 79.97173   164.7431   36.61368   32.03051   3.583486   2.29062    -9999      -9999      2.060563  
3415       12.55636   -0.01017426 80.49683   166.5992   36.02254   33.87432   3.420038   2.23873    -9999      -9999      2.070453  
3415.5     12.47794   -0.01006813 83.44582   166.8727   36.75173   34.73742   3.269053   2.212616   -9999      -9999      2.001216  
3416       12.43506   -0.005617569 86.47763   165.189    38.13835   33.45532   3.202709   2.222906   -9999      -9999      1.910922  
3416.5     12.43067   -0.00255037 87.8571    161.7096   40.65418   32.03614   3.25504    2.243026   -9999      -9999      1.840386  
3417       12.45708   -0.005805529 87.11852   158.4303   43.62078   32.59891   3.382018   2.242752   -9999      -9999      1.818415  
3417.5     12.51318   -0.01146642 85.39557   157.6758   44.48835   33.99295   3.514908   2.226476   -9999      -9999      1.846952  
3418       12.58477   -0.0129793 82.99654   160.5439   42.11298   34.0865    3.579434   2.206094   -9999      -9999      1.937054  
3418.5     12.63515   -0.009980416 79.63017   168.8589   37.99037   33.0409    3.519245   2.171361   -9999      -9999      2.125303  
3419       12.64168   -0.00415046 76.66245   180.1518   33.63324   32.15376   3.386611   2.124246   -9999      -9999      2.352285  
3419.5     12.61131   0.005739915 75.28128   189.5676   29.50485   31.08989   3.306922   2.094828   -9999      -9999      2.518539  
3420       12.56003   0.01899006 75.40176   195.6443   26.16462   29.22636   3.323448   2.100103   -9999      -9999      2.594698  
