~Version
 VERS              .         3                             : CWLS LOG ASCII STANDARD - VERSION 3.0
 WRAP              .         NO                            : ONE LINE PER DEPTH STEP
 DLM               .         SPACE                         : DELIMITING CHARACTER(SPACE TAB OR COMMA)
~Well Information
#_______________________________________________________________________________
#
#PARAMETER_NAME    .UNIT     VALUE                         : DESCRIPTION
#_______________________________________________________________________________
STRT               .FEET     158                           : First reference value
STOP               .FEET     5105                          : Last reference value
STEP               .FEET     0.5                           : Step increment
NULL               .         -9999                         : Missing value
WELL               .         SY-070-1-01V                  : Well name
UWI                .UWI      1_200   ,  1_1000             : 
COMP               .COMP     ADCO                          : 
ORIGINALWELLNAME   .ORIGINALWELLNAME SY-70                         : 
FLD                .FLD      SHAH                          : 
API                .API      1_200   ,  1_1000             : 
LOC                .LOC      LATITUDE_  22* 55' 34.407'' N : 
SRVC               .SRVC     Baker ATLAS                   : 
STAT               .STAT     U.A.E                         : 
CNTY               .CNTY     ABU DHABI                     : 
DATE               .DATE     17-JAN-2013                   : 
LIC                .LIC                                    : 
PROV               .PROV                                   : 
LATI               .                                       : 
LONG               .                                       : 
GDAT               .                                       : 
CTRY               .                                       : 
~Parameter Information Block
#_______________________________________________________________________________
#
#PARAMETER_NAME    .UNIT     VALUE                         : DESCRIPTION
#_______________________________________________________________________________
SET                .         LOG_LQC_FNDR                  : 
REAL_CREATION_DATE .         Sun Mar 3 2013-10_46_33       : 
~Curve Information
#_______________________________________________________________________________
#
#LOGNAME           .UNIT     LOG_ID                        : DESCRIPTION
#_______________________________________________________________________________
MD                 .FEET                                   :  {F}
CALI               .IN                                     : Caliper {F}
DRHO               .G/C3                                   : Density correction {F}
DTC                .US/F                                   : Compressional wave slowness {F}
DTS                .US/F                                   : Shear wave slowness {F}
GR                 .GAPI                                   : Gamma ray {F}
NPHI               .PU                                     : Borehole size corrected compensated neutron porosity {F}
PE                 .B/E                                    : Photo electric cross-section {F}
RHOB               .G/C3                                   : Borehole size/mud weight corrected density {F}
RPD2               .OHMM                                   : 2 MHz 46" PH Calculated Downhole {F}
RPS2               .OHMM                                   : 2 MHz 20" PH Calculated Downhole {F}
VPVS               .                                       : Compressional to shear velocity ratio {F}
~Ascii
# ...
4426       8.822      0.04764187 79.32073   166.1584   49.64679   21.53794   3.734039   2.3551     0.65702    0.7004089  0.4773215 
4426.5     8.822      0.04478583 79.91905   169.3368   48.91638   22.7749    3.702778   2.343606   0.6098256  0.6454415  0.4722258 
4427       8.822      0.04269639 80.08256   172.5424   48.63973   23.79699   3.692029   2.33223    0.5735416  0.6115538  0.4645992 
4427.5     8.822      0.04442231 79.86949   175.4935   49.87862   23.5823    3.704821   2.331227   0.563546   0.6032404  0.4555098 
4428       8.822      0.04868967 79.62841   178.1673   52.10285   23.19109   3.695688   2.33884    0.5680519  0.6026851  0.4470942 
4428.5     8.822      0.05266483 79.8385    180.5387   54.12241   23.38315   3.617694   2.344522   0.5785978  0.5988479  0.4421805 
4429       8.822      0.05525388 80.38772   182.167    55.27508   24.7734    3.506154   2.346237   0.5891355  0.5855896  0.4414176 
4429.5     8.822      0.05723046 81.02002   183.0847   55.19641   26.86972   3.436625   2.352875   0.583351   0.5546048  0.4427401 
4430       8.822      0.05884038 81.53383   183.8856   54.00923   27.91203   3.424427   2.366044   0.5575866  0.5119575  0.4435562 
4430.5     8.82179    0.05858527 82.0195    184.9942   52.56745   27.75319   3.443623   2.373415   0.5294741  0.4765736  0.4432339 
4431       8.821234   0.05629991 82.53686   186.3247   51.56987   27.14492   3.445114   2.360989   0.5077243  0.4552267  0.4427894 
4431.5     8.821211   0.05382027 82.94088   187.2746   50.81878   26.27533   3.386509   2.332734   0.4767979  0.4362956  0.4426556 
4432       8.821767   0.04953171 82.71317   186.3459   49.86784   25.42779   3.275514   2.306651   0.4260707  0.4139179  0.4437476 
4432.5     8.822      0.04015126 81.18355   182.0502   48.97671   24.66664   3.170359   2.286712   0.3917327  0.4101245  0.4460444 
4433       8.822      0.03088021 78.24292   172.8338   48.73523   23.80419   3.128531   2.270577   0.4062951  0.4450949  0.4530229 
4433.5     8.822      0.0274886  74.51102   159.4047   49.42249   22.68216   3.152135   2.263508   0.4538492  0.508366   0.4680157 
4434       8.822      0.03283889 70.68046   145.5256   51.2403    20.83243   3.237769   2.272925   0.5396849  0.6107131  0.4860902 
4434.5     8.822      0.0518689  67.41047   136.5773   54.21985   18.5412    3.288756   2.323011   0.6843339  0.7765322  0.4937065 
4435       8.822      0.07028221 65.13124   134.9068   57.45211   16.86244   3.232189   2.403594   0.84365    0.9830954  0.4830395 
4435.5     8.822      0.06956039 64.3805    138.9667   59.55832   16.40775   3.183809   2.455716   0.9431161  1.174923   0.4636719 
4436       8.822      0.06176291 65.45927   145.5255   59.91152   17.34626   3.181201   2.463531   0.9616258  1.310529   0.4500911 
4436.5     8.822      0.05431629 67.98921   152.683    58.66618   19.68454   3.203215   2.443264   0.9258417  1.333945   0.4453393 
4437       8.822      0.04283053 71.1492    160.095    56.33709   23.22118   3.216481   2.388412   0.8872473  1.228577   0.4444602 
4437.5     8.822      0.03073379 74.26645   168.4525   53.5785    26.75806   3.228578   2.318232   0.8655559  1.070541   0.4410391 
4438       8.822      0.02880851 76.8979    176.0276   50.85884   28.83294   3.316452   2.276144   0.8468469  0.943926   0.4369079 
4438.5     8.822      0.03848333 78.68504   180.8996   48.75215   29.02777   3.45276    2.268656   0.807138   0.8633411  0.4350058 
4439       8.822      0.05248421 79.19881   182.2421   48.15859   27.11664   3.530922   2.290382   0.7427406  0.8060317  0.4344437 
4439.5     8.822      0.06135719 78.70554   181.3169   49.47205   24.18036   3.544884   2.322819   0.6812646  0.7603472  0.433895  
4440       8.822      0.06325364 77.44828   179.2574   52.02412   22.33774   3.544774   2.350383   0.6629311  0.7503759  0.4318902 
4440.5     8.822      0.06747159 76.05573   176.3341   55.11264   21.67478   3.535794   2.374015   0.714224   0.8080943  0.4314427 
4441       8.822      0.07612211 74.69563   172.3068   58.20915   21.53162   3.5081     2.394182   0.8254446  0.9349874  0.4336647 
4441.5     8.822      0.08024409 73.55676   167.4711   60.31612   21.25901   3.482579   2.404166   0.9468035  1.104757   0.4391165 
4442       8.822      0.07709716 72.8746    162.78     60.51408   21.0592    3.478945   2.409477   1.03806    1.289314   0.4475762 
4442.5     8.822      0.06812946 72.63829   159.4938   59.11896   21.5873    3.482577   2.407377   1.073626   1.411381   0.4553587 
4443       8.822      0.05908535 72.93439   158.4682   57.1271    22.87715   3.466704   2.394243   1.036181   1.396532   0.4603529 
4443.5     8.822      0.05436989 73.83284   159.6246   55.21575   24.15094   3.428836   2.373263   0.9354198  1.259132   0.4627872 
4444       8.822      0.04979846 75.32565   162.1407   53.745     24.47598   3.402098   2.343913   0.7780628  1.032696   0.4646826 
4444.5     8.822      0.04520088 77.31299   165.1133   52.73785   24.16812   3.403855   2.322082   0.6036355  0.7864047  0.4682568 
4445       8.822      0.04298164 79.41692   167.9997   51.79248   24.16144   3.421662   2.316535   0.4835364  0.6187294  0.4725915 
4445.5     8.822      0.04326916 81.1955    170.6939   50.87547   25.0274    3.437555   2.315589   0.4282591  0.5409888  0.4755766 
4446       8.822      0.04587166 82.43718   173.2366   50.51567   26.6667    3.434962   2.308823   0.3962834  0.4936042  0.4761012 
4446.5     8.822      0.05034404 83.12622   175.6098   50.71371   28.45887   3.418062   2.295583   0.3687649  0.4483728  0.4737341 
4447       8.822      0.0512399  83.26617   177.6578   50.49818   29.59141   3.406759   2.283958   0.349544   0.411805   0.469031  
4447.5     8.822      0.04676853 82.81144   179.0882   49.43235   29.53807   3.402401   2.282371   0.343646   0.3943973  0.4625691 
4448       8.822      0.04286605 82.01301   179.1012   48.20586   28.53305   3.392805   2.289617   0.3512844  0.3964693  0.4578396 
4448.5     8.822      0.0416496  81.36524   177.8987   47.3615    27.37224   3.370149   2.299834   0.3691993  0.4111191  0.4573647 
4449       8.822      0.04333177 80.97189   175.7785   46.89411   26.80875   3.32773    2.31035    0.3875907  0.4276909  0.4606278 
4449.5     8.822      0.04694626 80.55651   173.4861   46.80883   26.85271   3.272979   2.316791   0.3967084  0.436913   0.464058  
4450       8.822      0.05203049 80.01222   171.1746   46.82825   26.94943   3.23812    2.318935   0.3956928  0.4357116  0.4672934 
4450.5     8.822      0.05675774 79.53223   169.1058   46.3825    26.83607   3.24246    2.32072    0.3913577  0.4291809  0.4703884 
4451       8.822      0.05872646 79.32175   167.8607   45.39751   26.71696   3.25821    2.32369    0.3949304  0.4278838  0.472488  
4451.5     8.822      0.05908097 79.25825   167.0858   44.25931   26.85564   3.259187   2.325541   0.4126793  0.4347381  0.4743697 
4452       8.822      0.0592652  79.24633   166.8468   43.54917   27.24799   3.242214   2.322212   0.4387099  0.4435665  0.475     
4452.5     8.822      0.05852547 79.25591   166.9262   43.58357   27.66077   3.202862   2.314709   0.4567801  0.446983   0.475     
4453       8.822      0.05563176 79.2487    166.9938   43.93098   27.90659   3.15778    2.305405   0.4542687  0.4414224  0.4747644 
4453.5     8.822      0.05263188 79.10369   166.7439   43.8013    28.07705   3.129188   2.29705    0.4292563  0.4295069  0.4744432 
4454       8.822      0.05289992 78.81002   165.91     43.28753   28.22478   3.128259   2.294893   0.4031165  0.4182116  0.4752659 
4454.5     8.822      0.05639287 78.54366   164.602    43.20785   28.32988   3.153739   2.300149   0.3920447  0.4132783  0.4775342 
4455       8.822      0.06006135 78.55875   163.4699   43.70077   28.29412   3.172174   2.307143   0.3929329  0.4158094  0.4808876 
4455.5     8.822      0.06013941 78.69698   162.9702   44.12614   28.06755   3.153936   2.308849   0.3990903  0.421228   0.4831456 
4456       8.822      0.05633049 78.76369   163.2252   44.48837   27.85242   3.110932   2.304      0.4012219  0.4215519  0.4827277 
