~Version
 VERS              .         3                             : CWLS LOG ASCII STANDARD - VERSION 3.0
 WRAP              .         NO                            : ONE LINE PER DEPTH STEP
 DLM               .         SPACE                         : DELIMITING CHARACTER(SPACE TAB OR COMMA)
~Well Information
#_______________________________________________________________________________
#
#PARAMETER_NAME    .UNIT     VALUE                         : DESCRIPTION
#_______________________________________________________________________________
STRT               .FEET     158                           : First reference value
STOP               .FEET     5105                          : Last reference value
STEP               .FEET     0.5                           : Step increment
NULL               .         -9999                         : Missing value
WELL               .         SY-070-1-01V                  : Well name
UWI                .UWI      1_200   ,  1_1000             : 
COMP               .COMP     ADCO                          : 
ORIGINALWELLNAME   .ORIGINALWELLNAME SY-70                         : 
FLD                .FLD      SHAH                          : 
API                .API      1_200   ,  1_1000             : 
LOC                .LOC      LATITUDE_  22* 55' 34.407'' N : 
SRVC               .SRVC     Baker ATLAS                   : 
STAT               .STAT     U.A.E                         : 
CNTY               .CNTY     ABU DHABI                     : 
DATE               .DATE     17-JAN-2013                   : 
LIC                .LIC                                    : 
PROV               .PROV                                   : 
LATI               .                                       : 
LONG               .                                       : 
GDAT               .                                       : 
CTRY               .                                       : 
~Parameter Information Block
#_______________________________________________________________________________
#
#PARAMETER_NAME    .UNIT     VALUE                         : DESCRIPTION
#_______________________________________________________________________________
SET                .         LOG_LQC_FNDR                  : 
REAL_CREATION_DATE .         Sun Mar 3 2013-10_46_33       : 
~Curve Information
#_______________________________________________________________________________
#
#LOGNAME           .UNIT     LOG_ID                        : DESCRIPTION
#_______________________________________________________________________________
MD                 .FEET                                   :  {F}
CALI               .IN                                     : Caliper {F}
DRHO               .G/C3                                   : Density correction {F}
DTC                .US/F                                   : Compressional wave slowness {F}
DTS                .US/F                                   : Shear wave slowness {F}
GR                 .GAPI                                   : Gamma ray {F}
NPHI               .PU                                     : Borehole size corrected compensated neutron porosity {F}
PE                 .B/E                                    : Photo electric cross-section {F}
RHOB               .G/C3                                   : Borehole size/mud weight corrected density {F}
RPD2               .OHMM                                   : 2 MHz 46" PH Calculated Downhole {F}
RPS2               .OHMM                                   : 2 MHz 20" PH Calculated Downhole {F}
VPVS               .                                       : Compressional to shear velocity ratio {F}
~Ascii
# ...
2749.5     14.78827   -0.02452534 102.785    237.6262   16.01873   39.92975   3.20842    2.146711   -9999      -9999      2.311938  
2750       14.79346   -0.02494412 101.9037   235.4237   15.72095   37.93997   3.282719   2.150577   -9999      -9999      2.310405  
2750.5     14.80187   -0.02392002 100.9187   233.0022   15.47019   35.80589   3.442529   2.152      -9999      -9999      2.30868   
2751       14.80836   -0.02241804 100.4655   231.342    15.5036    36.2905    3.570307   2.152111   -9999      -9999      2.3027    
2751.5     14.80556   -0.02083556 100.4568   230.7326   15.85218   40.17725   3.621281   2.154356   -9999      -9999      2.297119  
2752       14.79745   -0.0177812 100.7007   230.5514   16.35157   45.01488   3.643875   2.160909   -9999      -9999      2.289566  
2752.5     14.78715   -0.01383491 101.1401   229.7685   16.68173   46.5337    3.649403   2.168166   -9999      -9999      2.271852  
2753       14.77172   -0.01094393 101.8717   228.3305   16.65425   45.08441   3.63023    2.170973   -9999      -9999      2.241733  
2753.5     14.75835   -0.01005433 102.58     226.6672   16.4126    44.37738   3.627462   2.170526   -9999      -9999      2.210162  
2754       14.75617   -0.01116528 102.4133   223.9446   16.15609   43.64833   3.652719   2.171165   -9999      -9999      2.186958  
2754.5     14.75855   -0.01422374 100.7777   219.5081   15.95224   40.15542   3.653288   2.174494   -9999      -9999      2.17805   
2755       14.7491    -0.01819864 97.90251   213.352    15.73697   35.65521   3.614076   2.184168   -9999      -9999      2.178983  
2755.5     14.72404   -0.02164317 94.44652   205.7383   15.46761   33.69902   3.593445   2.206095   -9999      -9999      2.178003  
2756       14.6994    -0.02406019 90.85143   196.9983   15.14258   34.33395   3.62831    2.244201   -9999      -9999      2.167822  
2756.5     14.69016   -0.0250266 88.16865   188.436    14.71999   34.90254   3.63021    2.291105   -9999      -9999      2.137029  
2757       14.69326   -0.02553101 87.13841   183.3942   14.52572   34.03275   3.471      2.325665   -9999      -9999      2.104911  
2757.5     14.69746   -0.02594764 87.89848   184.2423   14.8726    33.42811   3.214134   2.334882   -9999      -9999      2.09634   
2758       14.69595   -0.02488425 90.4763    190.2801   15.22655   34.81335   3.051356   2.322345   -9999      -9999      2.103279  
2758.5     14.68532   -0.02296172 93.9299    198.8447   15.03412   37.82343   3.031196   2.291948   -9999      -9999      2.116996  
2759       14.66353   -0.02250637 96.8138    206.707    14.80534   41.59376   3.047908   2.247472   -9999      -9999      2.135116  
2759.5     14.62836   -0.02238982 97.95858   211.9381   15.01003   44.97308   3.024668   2.206197   -9999      -9999      2.163414  
2760       14.58269   -0.02029759 97.78584   213.6209   15.23674   45.33501   2.976057   2.187525   -9999      -9999      2.184281  
2760.5     14.5353    -0.01668515 97.53429   212.3913   15.14314   42.40479   2.925697   2.200411   -9999      -9999      2.177322  
2761       14.48946   -0.01108292 97.51472   209.4707   14.95503   39.9938    2.869207   2.243896   -9999      -9999      2.14774   
2761.5     14.4371    -0.004258906 97.54156   206.8759   15.00305   39.44232   2.815808   2.299565   -9999      -9999      2.120914  
2762       14.38149   -0.001201508 97.50302   206.09     15.24615   38.65503   2.769588   2.327006   -9999      -9999      2.113705  
2762.5     14.34347   -0.005406958 97.45909   207.449    15.36421   37.24633   2.698714   2.305164   -9999      -9999      2.12821   
2763       14.32846   -0.01165287 98.0798    210.4896   15.38872   37.10404   2.603868   2.269158   -9999      -9999      2.146045  
2763.5     14.31846   -0.01343919 99.07131   213.4519   15.70192   39.01715   2.547801   2.260322   -9999      -9999      2.154697  
2764       14.2999    -0.01251331 99.82568   215.2363   16.49199   40.76476   2.585291   2.27475    -9999      -9999      2.156393  
2764.5     14.27223   -0.01314739 100.3891   216.3632   17.61404   40.38323   2.728283   2.284115   -9999      -9999      2.15561   
2765       14.23273   -0.01568461 100.9231   217.6335   18.55916   39.41256   2.952942   2.275405   -9999      -9999      2.156779  
2765.5     14.17704   -0.01863619 101.8565   219.1862   18.95359   40.04358   3.188993   2.257572   -9999      -9999      2.15219   
2766       14.11362   -0.0205379 102.531    220.2996   19.17753   40.58483   3.360511   2.244013   -9999      -9999      2.148489  
2766.5     14.06342   -0.021     102.2077   219.5621   19.64403   38.62928   3.453678   2.236552   -9999      -9999      2.14802   
2767       14.03218   -0.02095164 100.5328   215.9981   20.20642   36.065     3.473395   2.229129   -9999      -9999      2.148574  
2767.5     14.00091   -0.01985003 98.14042   209.7588   20.61714   35.78895   3.384094   2.225108   -9999      -9999      2.137105  
2768       13.95816   -0.01728627 96.02257   202.1281   20.50053   37.58636   3.166267   2.240023   -9999      -9999      2.104566  
2768.5     13.91484   -0.0137698 94.20186   194.7298   19.49413   38.47934   2.874718   2.285563   -9999      -9999      2.066762  
2769       13.88378   -0.01047515 92.74041   188.5017   18.10712   36.67167   2.623171   2.349971   -9999      -9999      2.032308  
2769.5     13.86682   -0.0113501 92.01124   184.9073   17.28994   33.78199   2.508221   2.396601   -9999      -9999      2.009552  
2770       13.85629   -0.01744315 92.24738   185.0743   17.06586   32.00142   2.547356   2.395765   -9999      -9999      2.006387  
2770.5     13.84469   -0.02372994 93.25143   188.8032   17.05592   32.24144   2.727924   2.356846   -9999      -9999      2.024462  
2771       13.83218   -0.0265416 94.74171   194.767    17.42431   34.60745   3.022379   2.308735   -9999      -9999      2.05522   
2771.5     13.81899   -0.02695372 96.4622    200.4887   18.1742    37.22655   3.333042   2.268519   -9999      -9999      2.078339  
2772       13.80275   -0.0258462 98.1095    205.0554   18.84111   37.01889   3.538815   2.240767   -9999      -9999      2.090204  
2772.5     13.78282   -0.02330292 99.49792   209.1804   19.16509   34.53109   3.585472   2.223783   -9999      -9999      2.102126  
2773       13.75439   -0.02037033 100.7541   213.7297   19.08975   33.37103   3.49245    2.214129   -9999      -9999      2.120812  
2773.5     13.71158   -0.01902271 102.0434   218.2816   18.81814   34.98875   3.341112   2.20937    -9999      -9999      2.138927  
2774       13.65889   -0.01965639 103.3974   222.6004   19.03212   37.84335   3.260434   2.207955   -9999      -9999      2.152772  
2774.5     13.60515   -0.02281086 104.6206   226.2892   20.03216   39.32824   3.319315   2.206754   -9999      -9999      2.162854  
2775       13.55696   -0.02720079 105.5353   228.6957   21.34439   38.10079   3.427416   2.202054   -9999      -9999      2.166933  
2775.5     13.52387   -0.02952307 106.1815   229.7953   22.48628   35.5564    3.447752   2.195729   -9999      -9999      2.164052  
2776       13.51193   -0.02938895 106.6528   230.1182   23.42638   34.45692   3.384936   2.193153   -9999      -9999      2.157465  
2776.5     13.51152   -0.02734072 107.0627   229.9973   24.35029   35.57681   3.339245   2.196908   -9999      -9999      2.148319  
2777       13.51141   -0.02543186 107.4446   229.8711   25.11879   36.11847   3.315715   2.202054   -9999      -9999      2.139526  
2777.5     13.50988   -0.02438837 108.0307   230.3582   25.00357   34.84111   3.226233   2.200568   -9999      -9999      2.132101  
2778       13.50854   -0.02229412 109.1193   232.2706   23.99163   34.83887   3.071757   2.194106   -9999      -9999      2.12859   
2778.5     13.51028   -0.01933625 110.7588   235.9616   23.23312   38.1063    2.96519    2.189229   -9999      -9999      2.130288  
2779       13.51413   -0.01745231 112.86     241.1143   23.31247   42.66413   2.962613   2.184414   -9999      -9999      2.136144  
2779.5     13.51416   -0.01697881 114.9439   246.6305   23.641     45.10328   2.992718   2.173902   -9999      -9999      2.14546   
