~Version
 VERS              .         3                             : CWLS LOG ASCII STANDARD - VERSION 3.0
 WRAP              .         NO                            : ONE LINE PER DEPTH STEP
 DLM               .         SPACE                         : DELIMITING CHARACTER(SPACE TAB OR COMMA)
~Well Information
#_______________________________________________________________________________
#
#PARAMETER_NAME    .UNIT     VALUE                         : DESCRIPTION
#_______________________________________________________________________________
STRT               .FEET     158                           : First reference value
STOP               .FEET     5105                          : Last reference value
STEP               .FEET     0.5                           : Step increment
NULL               .         -9999                         : Missing value
WELL               .         SY-070-1-01V                  : Well name
UWI                .UWI      1_200   ,  1_1000             : 
COMP               .COMP     ADCO                          : 
ORIGINALWELLNAME   .ORIGINALWELLNAME SY-70                         : 
FLD                .FLD      SHAH                          : 
API                .API      1_200   ,  1_1000             : 
LOC                .LOC      LATITUDE_  22* 55' 34.407'' N : 
SRVC               .SRVC     Baker ATLAS                   : 
STAT               .STAT     U.A.E                         : 
CNTY               .CNTY     ABU DHABI                     : 
DATE               .DATE     17-JAN-2013                   : 
LIC                .LIC                                    : 
PROV               .PROV                                   : 
LATI               .                                       : 
LONG               .                                       : 
GDAT               .                                       : 
CTRY               .                                       : 
~Parameter Information Block
#_______________________________________________________________________________
#
#PARAMETER_NAME    .UNIT     VALUE                         : DESCRIPTION
#_______________________________________________________________________________
SET                .         LOG_LQC_FNDR                  : 
REAL_CREATION_DATE .         Sun Mar 3 2013-10_46_33       : 
~Curve Information
#_______________________________________________________________________________
#
#LOGNAME           .UNIT     LOG_ID                        : DESCRIPTION
#_______________________________________________________________________________
MD                 .FEET                                   :  {F}
CALI               .IN                                     : Caliper {F}
DRHO               .G/C3                                   : Density correction {F}
DTC                .US/F                                   : Compressional wave slowness {F}
DTS                .US/F                                   : Shear wave slowness {F}
GR                 .GAPI                                   : Gamma ray {F}
NPHI               .PU                                     : Borehole size corrected compensated neutron porosity {F}
PE                 .B/E                                    : Photo electric cross-section {F}
RHOB               .G/C3                                   : Borehole size/mud weight corrected density {F}
RPD2               .OHMM                                   : 2 MHz 46" PH Calculated Downhole {F}
RPS2               .OHMM                                   : 2 MHz 20" PH Calculated Downhole {F}
VPVS               .                                       : Compressional to shear velocity ratio {F}
~Ascii
# ...
4030       12.53146   -0.005125924 84.665     170.3444   22.67666   30.90515   3.230135   2.263602   -9999      -9999      2.01181   
4030.5     12.61832   -0.006445227 86.15363   176.6787   22.27987   32.64134   3.22703    2.216514   -9999      -9999      2.050386  
4031       12.67997   -0.007680742 87.99258   183.6861   22.40166   34.39709   3.288246   2.18207    -9999      -9999      2.087197  
4031.5     12.70216   -0.01086929 89.547     189.3605   23.29595   37.02388   3.309135   2.165658   -9999      -9999      2.114589  
4032       12.70651   -0.01552915 90.43894   192.7766   23.94926   39.71852   3.253901   2.162229   -9999      -9999      2.131615  
4032.5     12.70337   -0.01978591 90.49173   194.2194   23.76924   41.25875   3.169345   2.165612   -9999      -9999      2.146546  
4033       12.69055   -0.02091705 90.12073   195.0107   23.614     41.91101   3.127508   2.17412    -9999      -9999      2.163692  
4033.5     12.67116   -0.01955528 89.70956   195.1322   24.0666    42.57672   3.152003   2.185461   -9999      -9999      2.175129  
4034       12.66038   -0.01759668 89.62471   195.5273   24.56564   42.57254   3.207854   2.195975   -9999      -9999      2.181426  
4034.5     12.67331   -0.01342983 89.37992   195.8589   24.55061   41.22505   3.274559   2.211073   -9999      -9999      2.191564  
4035       12.71035   -0.0084917 89.33347   195.6379   24.26099   38.91084   3.343415   2.234429   -9999      -9999      2.190419  
4035.5     12.75676   -0.002769493 89.39935   195.1148   24.46601   37.02612   3.358971   2.252299   -9999      -9999      2.182623  
4036       12.7924    0.001043461 89.3289    194.2627   25.69763   36.60899   3.301329   2.245138   -9999      -9999      2.174407  
4036.5     12.7992    0.00410498 88.57693   193.9221   26.98763   37.63763   3.234421   2.213887   -9999      -9999      2.189495  
4037       12.7709    0.007104981 87.7693    193.9123   26.97761   38.94638   3.217746   2.180669   -9999      -9999      2.20923   
4037.5     12.72469   0.01010498 87.57365   194.5065   26.05094   38.68438   3.246562   2.160099   -9999      -9999      2.221112  
4038       12.68719   0.009495178 87.92425   195.4318   25.41338   36.79964   3.270885   2.149549   -9999      -9999      2.223095  
4038.5     12.682     0.003987091 88.91635   196.6041   25.20705   35.18023   3.252792   2.141387   -9999      -9999      2.21147   
4039       12.71969   -0.002911621 90.00217   197.506    24.83892   35.65089   3.20352    2.137718   -9999      -9999      2.19433   
4039.5     12.77484   -0.007024297 91.40279   198.3882   24.51295   37.00531   3.175879   2.142093   -9999      -9999      2.170596  
4040       12.80527   -0.008661406 92.2203    198.8018   24.64446   36.3497    3.187665   2.14819    -9999      -9999      2.155584  
4040.5     12.78922   -0.007536434 92.42368   198.6071   25.07833   34.4507    3.194962   2.152766   -9999      -9999      2.148612  
4041       12.73615   -0.004153286 92.106     197.6651   25.26305   34.12248   3.185856   2.161137   -9999      -9999      2.145657  
4041.5     12.68318   -0.002358056 91.69024   196.0741   25.38307   35.60759   3.217635   2.176068   -9999      -9999      2.138546  
4042       12.66683   -0.005627694 91.33125   194.5857   25.72214   36.35884   3.313004   2.18932    -9999      -9999      2.130407  
4042.5     12.6867    -0.01483737 91.25014   193.3751   25.85602   34.99004   3.407932   2.191319   -9999      -9999      2.118779  
4043       12.71966   -0.0249968 91.28901   192.7899   25.29559   33.84867   3.451274   2.185989   -9999      -9999      2.11165   
4043.5     12.75384   -0.0306881 91.28802   192.6088   24.27188   34.71897   3.458063   2.18486    -9999      -9999      2.110099  
4044       12.77487   -0.03192117 91.14637   192.679    23.63918   35.98745   3.450104   2.19003    -9999      -9999      2.114328  
4044.5     12.77824   -0.02911473 90.69424   192.4175   24.00459   35.71587   3.450102   2.199075   -9999      -9999      2.121653  
4045       12.77588   -0.02375082 90.01437   191.6317   24.81578   35.84526   3.497083   2.20541    -9999      -9999      2.128892  
4045.5     12.76424   -0.01779004 89.04215   190.6205   25.39501   36.99982   3.564955   2.204017   -9999      -9999      2.14096   
4046       12.72207   -0.01106887 87.7924    189.4281   25.67004   36.44565   3.55721    2.197309   -9999      -9999      2.157708  
4046.5     12.66044   -0.003367349 86.65524   188.2519   25.25288   34.15391   3.437697   2.195155   -9999      -9999      2.172746  
4047       12.61632   0.003892265 85.69126   187.2974   23.90181   32.96744   3.291712   2.200768   -9999      -9999      2.186102  
4047.5     12.61579   0.005864876 85.16161   186.6081   22.78837   33.26271   3.236399   2.205729   -9999      -9999      2.191191  
4048       12.66054   0.0002327128 84.97919   186.0817   23.03696   33.48557   3.310569   2.209807   -9999      -9999      2.189799  
4048.5     12.72491   -0.006171566 85.11287   185.7004   23.84979   33.5854    3.406851   2.215248   -9999      -9999      2.181849  
4049       12.77686   -0.01004755 85.46975   185.4607   24.20317   33.99106   3.402225   2.215443   -9999      -9999      2.169821  
4049.5     12.81463   -0.01094273 85.66856   185.503    24.006     34.35193   3.331557   2.20711    -9999      -9999      2.165527  
4050       12.85102   -0.008837915 86.0868    185.8171   23.62633   34.74916   3.293483   2.195561   -9999      -9999      2.158533  
4050.5     12.87643   -0.005174379 86.46959   186.6761   23.54494   35.85103   3.315224   2.187183   -9999      -9999      2.159054  
4051       12.88693   -0.001193359 87.48698   188.2236   24.12496   36.4487    3.362712   2.179368   -9999      -9999      2.151279  
4051.5     12.89825   0.003527113 88.58465   189.9217   24.74923   35.28727   3.399356   2.171387   -9999      -9999      2.143903  
4052       12.90032   0.007787885 89.84284   191.7506   25.00289   33.43694   3.409859   2.16843    -9999      -9999      2.134188  
4052.5     12.86474   0.01036593 90.87787   193.3044   25.90202   32.17571   3.40592    2.175943   -9999      -9999      2.126884  
4053       12.80725   0.01024242 91.46741   194.6216   27.78225   32.08442   3.409893   2.194642   -9999      -9999      2.127993  
4053.5     12.77359   0.006417375 91.03124   194.9805   28.96839   33.34924   3.435619   2.217157   -9999      -9999      2.14189   
4054       12.77147   -0.00138903 90.34222   194.4814   28.25834   34.7234    3.509205   2.230056   -9999      -9999      2.152428  
4054.5     12.77431   -0.01031494 89.45249   193.24     26.4977    34.7969    3.670161   2.227793   -9999      -9999      2.159893  
4055       12.78288   -0.01643469 88.80014   191.9981   25.04705   34.47305   3.885678   2.219648   -9999      -9999      2.161871  
4055.5     12.80596   -0.01574903 87.77287   190.9385   24.28622   34.48176   4.007152   2.223643   -9999      -9999      2.175678  
4056       12.81637   -0.008575737 86.52627   189.6513   23.78501   34.25854   3.903666   2.243113   -9999      -9999      2.192172  
4056.5     12.79561   0.0003149415 85.55666   187.7934   23.55979   34.5161    3.646624   2.262521   -9999      -9999      2.19527   
4057       12.77101   0.007155672 85.3068    186.2076   24.00276   36.12255   3.433165   2.271993   -9999      -9999      2.1828    
4057.5     12.76801   0.008891799 86.03929   185.2795   24.70185   37.37734   3.380776   2.273892   -9999      -9999      2.153837  
4058       12.77899   0.006841109 86.88152   185.1096   24.94309   36.70782   3.44345    2.271122   -9999      -9999      2.130938  
4058.5     12.78491   0.001016753 87.41293   185.0856   24.96501   36.32217   3.499751   2.261437   -9999      -9999      2.117425  
4059       12.78667   -0.005192119 87.26358   184.8177   25.23627   37.72404   3.508161   2.243104   -9999      -9999      2.117794  
4059.5     12.79274   -0.009771085 87.02043   184.9836   25.55126   37.59274   3.512161   2.224424   -9999      -9999      2.125386  
4060       12.79054   -0.01092954 87.26509   185.2129   25.76412   34.8282    3.539771   2.217879   -9999      -9999      2.122087  
