~Version
 VERS              .         3                             : CWLS LOG ASCII STANDARD - VERSION 3.0
 WRAP              .         NO                            : ONE LINE PER DEPTH STEP
 DLM               .         SPACE                         : DELIMITING CHARACTER(SPACE TAB OR COMMA)
~Well Information
#_______________________________________________________________________________
#
#PARAMETER_NAME    .UNIT     VALUE                         : DESCRIPTION
#_______________________________________________________________________________
STRT               .FEET     158                           : First reference value
STOP               .FEET     5105                          : Last reference value
STEP               .FEET     0.5                           : Step increment
NULL               .         -9999                         : Missing value
WELL               .         SY-070-1-01V                  : Well name
UWI                .UWI      1_200   ,  1_1000             : 
COMP               .COMP     ADCO                          : 
ORIGINALWELLNAME   .ORIGINALWELLNAME SY-70                         : 
FLD                .FLD      SHAH                          : 
API                .API      1_200   ,  1_1000             : 
LOC                .LOC      LATITUDE_  22* 55' 34.407'' N : 
SRVC               .SRVC     Baker ATLAS                   : 
STAT               .STAT     U.A.E                         : 
CNTY               .CNTY     ABU DHABI                     : 
DATE               .DATE     17-JAN-2013                   : 
LIC                .LIC                                    : 
PROV               .PROV                                   : 
LATI               .                                       : 
LONG               .                                       : 
GDAT               .                                       : 
CTRY               .                                       : 
~Parameter Information Block
#_______________________________________________________________________________
#
#PARAMETER_NAME    .UNIT     VALUE                         : DESCRIPTION
#_______________________________________________________________________________
SET                .         LOG_LQC_FNDR                  : 
REAL_CREATION_DATE .         Sun Mar 3 2013-10_46_33       : 
~Curve Information
#_______________________________________________________________________________
#
#LOGNAME           .UNIT     LOG_ID                        : DESCRIPTION
#_______________________________________________________________________________
MD                 .FEET                                   :  {F}
CALI               .IN                                     : Caliper {F}
DRHO               .G/C3                                   : Density correction {F}
DTC                .US/F                                   : Compressional wave slowness {F}
DTS                .US/F                                   : Shear wave slowness {F}
GR                 .GAPI                                   : Gamma ray {F}
NPHI               .PU                                     : Borehole size corrected compensated neutron porosity {F}
PE                 .B/E                                    : Photo electric cross-section {F}
RHOB               .G/C3                                   : Borehole size/mud weight corrected density {F}
RPD2               .OHMM                                   : 2 MHz 46" PH Calculated Downhole {F}
RPS2               .OHMM                                   : 2 MHz 20" PH Calculated Downhole {F}
VPVS               .                                       : Compressional to shear velocity ratio {F}
~Ascii
# ...
2414       12.63823   -0.03747073 51.71218   100.9735   3.117596   1.865719   3.981351   2.956054   -9999      -9999      1.952465  
2414.5     12.6332    -0.03943438 51.69843   100.8104   3.002414   1.858456   4.073481   2.95366    -9999      -9999      1.950202  
2415       12.63844   -0.04262108 51.65679   100.662    2.855147   1.833718   4.148304   2.945419   -9999      -9999      1.94842   
2415.5     12.65558   -0.04331435 51.5778    100.6054   2.814893   1.71025    4.128709   2.941746   -9999      -9999      1.950475  
2416       12.6681    -0.04216203 51.51807   100.058    2.771052   1.55643    4.190907   2.944987   -9999      -9999      1.94229   
2416.5     12.66311   -0.0437809 51.58437   99.75313   2.643851   1.501283   4.301363   2.94216    -9999      -9999      1.933598  
2417       12.64412   -0.04762148 51.71494   99.16924   2.538261   1.504811   4.223877   2.934835   -9999      -9999      1.91732   
2417.5     12.62657   -0.04821498 51.68195   98.55428   2.511976   1.389424   3.98       2.938953   -9999      -9999      1.906853  
2418       12.6202    -0.04600173 51.6993    97.62479   2.581669   1.208755   3.822526   2.953713   -9999      -9999      1.888175  
2418.5     12.62242   -0.04440956 51.48128   96.42765   2.736353   1.214069   3.840438   2.961673   -9999      -9999      1.873466  
2419       12.62995   -0.04565521 51.22791   95.95288   2.774516   1.372413   3.990455   2.956738   -9999      -9999      1.873312  
2419.5     12.63879   -0.04665562 50.99715   96.33427   2.612298   1.418915   4.246035   2.949146   -9999      -9999      1.888887  
2420       12.64276   -0.04596683 50.74982   96.34635   2.457741   1.263114   4.45072    2.944689   -9999      -9999      1.898457  
2420.5     12.64452   -0.04562205 50.45523   95.76687   2.471042   1.058577   4.419838   2.943022   -9999      -9999      1.898318  
2421       12.64401   -0.04465519 50.13523   95.30672   2.659294   0.9947073  4.252362   2.947748   -9999      -9999      1.901019  
2421.5     12.63827   -0.0440669 49.89349   95.8062    2.815996   1.118895   4.185735   2.957071   -9999      -9999      1.919886  
2422       12.63361   -0.04479072 50.17404   96.9788    2.768183   1.327922   4.247975   2.962185   -9999      -9999      1.932543  
2422.5     12.63686   -0.04713677 50.20736   97.60957   2.743451   1.517405   4.341149   2.956561   -9999      -9999      1.94411   
2423       12.6429    -0.05006982 49.97512   97.50896   2.910856   1.688008   4.436984   2.941278   -9999      -9999      1.951486  
2423.5     12.64365   -0.05234574 49.64336   96.70301   2.964262   1.859351   4.55662    2.924543   -9999      -9999      1.948121  
2424       12.64145   -0.05286444 49.53613   95.78676   2.809704   1.984415   4.644248   2.912367   -9999      -9999      1.933456  
2424.5     12.64277   -0.0514458 49.76334   94.75655   2.815249   2.027588   4.575189   2.908792   -9999      -9999      1.903939  
2425       12.64199   -0.04713211 49.92332   94.22662   3.146197   2.084158   4.413997   2.91536    -9999      -9999      1.887518  
2425.5     12.63488   -0.04254603 50.19717   94.44737   3.655751   2.333117   4.354183   2.924874   -9999      -9999      1.88136   
2426       12.63353   -0.03923825 51.01735   95.40703   4.172321   2.920999   4.380047   2.926201   -9999      -9999      1.870209  
2426.5     12.64282   -0.03716924 52.53431   97.39035   4.770327   3.994183   4.406482   2.914346   -9999      -9999      1.854271  
2427       12.64712   -0.03461218 55.04677   100.2837   5.689465   5.712291   4.472961   2.886023   -9999      -9999      1.822279  
2427.5     12.63725   -0.03206901 57.88346   104.6876   7.00154    8.1705     4.557936   2.838003   -9999      -9999      1.809037  
2428       12.634     -0.03283284 61.62238   111.7449   8.742936   11.50548   4.535804   2.769308   -9999      -9999      1.812542  
2428.5     12.65079   -0.03532002 66.45712   123.5768   11.12811   15.99571   4.319851   2.683507   -9999      -9999      1.857441  
2429       12.68301   -0.03702635 72.62937   140.0464   13.98393   21.9013    3.941901   2.590845   -9999      -9999      1.925686  
2429.5     12.74598   -0.03283286 79.6003    160.3261   16.4342    28.75961   3.538921   2.498605   -9999      -9999      2.011897  
2430       12.85806   -0.02385694 86.63937   181.6707   17.84108   34.74037   3.175455   2.401742   -9999      -9999      2.09526   
2430.5     12.99081   -0.01358517 93.52582   201.972    18.07256   38.42475   2.789426   2.292759   -9999      -9999      2.158342  
2431       13.09643   -0.004967357 99.50997   218.9706   17.17295   42.35759   2.427762   2.187649   -9999      -9999      2.199674  
2431.5     13.15792   0.00247556 103.9109   232.247    15.81904   48.47537   2.195829   2.112911   -9999      -9999      2.234843  
2432       13.19231   0.007207577 106.796    240.7346   15.26505   53.13718   2.081947   2.075673   -9999      -9999      2.254502  
2432.5     13.22264   0.006533486 107.4923   241.2597   15.98519   51.95243   1.992627   2.05944    -9999      -9999      2.244692  
2433       13.25115   0.003372815 106.3958   234.0613   17.22073   48.45622   1.897837   2.052904   -9999      -9999      2.19963   
2433.5     13.25835   0.00255667 103.641    218.7609   17.48563   45.54413   1.842784   2.05857    -9999      -9999      2.109861  
2434       13.22233   0.002317804 99.90273   199.5708   15.91868   41.0757    1.833478   2.087701   -9999      -9999      1.995915  
2434.5     13.1286    -0.003083398 94.73385   177.881    12.99322   32.18324   1.861215   2.156271   -9999      -9999      1.876247  
2435       12.98033   -0.01083561 86.31264   159.0693   9.716334   20.50753   2.016718   2.289691   -9999      -9999      1.843621  
2435.5     12.82752   -0.01635004 75.68223   141.1785   6.765402   11.17333   2.488702   2.495864   -9999      -9999      1.869318  
2436       12.73079   -0.01739522 64.09995   122.5963   4.599257   5.871611   3.248739   2.72551    -9999      -9999      1.909837  
2436.5     12.696     -0.02110633 57.14042   105.926    3.359065   3.517233   3.794293   2.882711   -9999      -9999      1.854118  
2437       12.6876    -0.03059893 53.51096   99.39703   2.770861   2.856147   3.857555   2.935388   -9999      -9999      1.857486  
2437.5     12.68518   -0.03651139 52.58266   98.08737   2.592362   2.880402   3.66643    2.944754   -9999      -9999      1.865045  
2438       12.68701   -0.04016167 52.30585   97.4557    2.715262   2.974481   3.481044   2.947747   -9999      -9999      1.863028  
2438.5     12.69268   -0.04316214 52.24778   97.8127    3.180811   3.120573   3.484627   2.945071   -9999      -9999      1.871902  
2439       12.69907   -0.04605422 52.21392   99.38171   3.741628   3.421106   3.6685     2.935815   -9999      -9999      1.903537  
2439.5     12.70287   -0.04789047 52.07928   99.9125    3.93105    3.759225   3.941983   2.921662   -9999      -9999      1.918229  
2440       12.7047    -0.04683493 51.91358   100.3297   3.72892    3.949445   4.232839   2.907373   -9999      -9999      1.932707  
2440.5     12.71451   -0.04387058 52.27984   101.802    3.502565   4.003882   4.473425   2.899577   -9999      -9999      1.947493  
2441       12.73359   -0.04125906 53.91652   105.8932   3.572464   4.350273   4.536452   2.892605   -9999      -9999      1.964578  
2441.5     12.76036   -0.0397948 58.06557   113.0357   4.278587   5.711854   4.286308   2.864546   -9999      -9999      1.94746   
2442       12.794     -0.04052044 63.48958   121.9229   5.971014   8.789135   3.731771   2.776444   -9999      -9999      1.921251  
2442.5     12.83066   -0.04372577 69.48031   132.4263   8.639909   14.10869   3.113676   2.605306   -9999      -9999      1.905669  
2443       12.85787   -0.04223242 73.41087   141.9211   11.42207   21.42689   2.665667   2.413612   -9999      -9999      1.932899  
2443.5     12.8633    -0.03090583 75.56988   147.5249   12.72892   26.96753   2.435398   2.307508   -9999      -9999      1.952202  
2444       12.83383   -0.01642761 75.1863    146.5051   11.40433   23.86216   2.452117   2.332366   -9999      -9999      1.948244  
