~Version
 VERS              .         3                             : CWLS LOG ASCII STANDARD - VERSION 3.0
 WRAP              .         NO                            : ONE LINE PER DEPTH STEP
 DLM               .         SPACE                         : DELIMITING CHARACTER(SPACE TAB OR COMMA)
~Well Information
#_______________________________________________________________________________
#
#PARAMETER_NAME    .UNIT     VALUE                         : DESCRIPTION
#_______________________________________________________________________________
STRT               .FEET     158                           : First reference value
STOP               .FEET     5105                          : Last reference value
STEP               .FEET     0.5                           : Step increment
NULL               .         -9999                         : Missing value
WELL               .         SY-070-1-01V                  : Well name
UWI                .UWI      1_200   ,  1_1000             : 
COMP               .COMP     ADCO                          : 
ORIGINALWELLNAME   .ORIGINALWELLNAME SY-70                         : 
FLD                .FLD      SHAH                          : 
API                .API      1_200   ,  1_1000             : 
LOC                .LOC      LATITUDE_  22* 55' 34.407'' N : 
SRVC               .SRVC     Baker ATLAS                   : 
STAT               .STAT     U.A.E                         : 
CNTY               .CNTY     ABU DHABI                     : 
DATE               .DATE     17-JAN-2013                   : 
LIC                .LIC                                    : 
PROV               .PROV                                   : 
LATI               .                                       : 
LONG               .                                       : 
GDAT               .                                       : 
CTRY               .                                       : 
~Parameter Information Block
#_______________________________________________________________________________
#
#PARAMETER_NAME    .UNIT     VALUE                         : DESCRIPTION
#_______________________________________________________________________________
SET                .         LOG_LQC_FNDR                  : 
REAL_CREATION_DATE .         Sun Mar 3 2013-10_46_33       : 
~Curve Information
#_______________________________________________________________________________
#
#LOGNAME           .UNIT     LOG_ID                        : DESCRIPTION
#_______________________________________________________________________________
MD                 .FEET                                   :  {F}
CALI               .IN                                     : Caliper {F}
DRHO               .G/C3                                   : Density correction {F}
DTC                .US/F                                   : Compressional wave slowness {F}
DTS                .US/F                                   : Shear wave slowness {F}
GR                 .GAPI                                   : Gamma ray {F}
NPHI               .PU                                     : Borehole size corrected compensated neutron porosity {F}
PE                 .B/E                                    : Photo electric cross-section {F}
RHOB               .G/C3                                   : Borehole size/mud weight corrected density {F}
RPD2               .OHMM                                   : 2 MHz 46" PH Calculated Downhole {F}
RPS2               .OHMM                                   : 2 MHz 20" PH Calculated Downhole {F}
VPVS               .                                       : Compressional to shear velocity ratio {F}
~Ascii
# ...
3054.5     13.76359   -0.0234452 81.90832   171.0427   35.98523   27.61929   3.451574   2.30737    -9999      -9999      2.08871   
3055       13.78018   -0.01942671 82.06357   173.8027   38.86002   32.36956   3.238919   2.282043   -9999      -9999      2.117903  
3055.5     13.79623   -0.01810842 83.5169    176.3151   40.79154   35.06969   3.068793   2.27658    -9999      -9999      2.111137  
3056       13.80933   -0.02089347 86.25151   177.7527   41.97306   35.26536   2.937604   2.265895   -9999      -9999      2.061607  
3056.5     13.81925   -0.02263648 91.28412   178.8084   42.9945    34.75544   2.839226   2.250006   -9999      -9999      1.960711  
3057       13.82904   -0.02008487 93.66529   178.6363   43.79143   34.23146   2.77487    2.243922   -9999      -9999      1.907838  
3057.5     13.84408   -0.01691681 92.0947    179.5252   43.89344   33.86648   2.785944   2.255342   -9999      -9999      1.949742  
3058       13.87323   -0.01751236 90.5899    179.5772   42.7763    33.36509   2.949739   2.285674   -9999      -9999      1.982623  
3058.5     13.91554   -0.02157378 88.18259   177.8399   40.13198   32.16726   3.311342   2.329218   -9999      -9999      2.017034  
3059       13.95911   -0.02433779 87.14683   176.0355   36.65851   30.75921   3.676986   2.366573   -9999      -9999      2.019935  
3059.5     13.98843   -0.0256798 88.56023   175.5762   33.28292   29.94134   3.706613   2.355998   -9999      -9999      1.982766  
3060       14.00488   -0.0274252 91.16045   176.811    30.29319   30.55529   3.466505   2.285941   -9999      -9999      1.939684  
3060.5     14.03693   -0.02723265 92.95033   179.7638   27.71615   33.04473   3.231648   2.19636    -9999      -9999      1.933708  
3061       14.11299   -0.02412762 93.04697   183.7412   25.93618   36.6198    3.100481   2.130496   -9999      -9999      1.974621  
3061.5     14.2137    -0.01874629 92.42187   187.9162   25.38227   39.08882   3.01758    2.098307   -9999      -9999      2.033656  
3062       14.28392   -0.01351366 92.1035    191.233    26.10884   40.31435   2.924263   2.089312   -9999      -9999      2.076689  
3062.5     14.30581   -0.01066261 92.02242   192.8992   26.87587   42.61454   2.837136   2.096026   -9999      -9999      2.096616  
3063       14.31029   -0.01004398 91.46435   192.8706   26.56848   45.9078    2.798628   2.117573   -9999      -9999      2.108674  
3063.5     14.3124    -0.01289465 90.78242   191.582    26.02929   47.8852    2.805935   2.145414   -9999      -9999      2.110311  
3064       14.30572   -0.01897767 90.21323   189.4306   26.4814    47.46615   2.812007   2.168559   -9999      -9999      2.099912  
3064.5     14.29526   -0.02229318 89.47261   186.9757   27.34146   43.78046   2.810785   2.193353   -9999      -9999      2.089795  
3065       14.28645   -0.02006111 88.18702   184.6926   27.60056   37.6423    2.866515   2.231546   -9999      -9999      2.094435  
3065.5     14.27043   -0.01329851 86.36877   182.4297   27.36247   32.13983   3.03247    2.281409   -9999      -9999      2.112701  
3066       14.24588   -0.009005055 84.41624   179.922    27.34765   29.04321   3.262853   2.329122   -9999      -9999      2.131542  
3066.5     14.23064   -0.01023749 82.82632   177.507    27.42239   28.10348   3.47651    2.368763   -9999      -9999      2.143116  
3067       14.21639   -0.01744751 81.75131   176.2648   27.10631   27.54022   3.680437   2.403067   -9999      -9999      2.155934  
3067.5     14.16022   -0.0270387 80.78495   175.996    26.4588    25.88193   3.913111   2.431088   -9999      -9999      2.178509  
3068       14.04605   -0.03556905 80.22168   176.1191   25.54061   23.99347   4.117846   2.450005   -9999      -9999      2.195558  
3068.5     13.9219    -0.03854682 80.37183   175.5327   24.37791   23.20352   4.200002   2.462608   -9999      -9999      2.183767  
3069       13.83706   -0.03608272 80.87647   172.9706   23.44156   23.15992   4.141034   2.457795   -9999      -9999      2.138679  
3069.5     13.79701   -0.03725993 80.81701   169.1046   22.85884   23.0604    3.963515   2.408197   -9999      -9999      2.092371  
3070       13.78426   -0.04155259 79.70214   164.2468   22.0066    22.75415   3.693427   2.33064    -9999      -9999      2.060431  
3070.5     13.78937   -0.04071829 78.29332   161.1748   20.98438   22.34083   3.394242   2.287591   -9999      -9999      2.058386  
3071       13.8106    -0.02993299 77.96377   162.49     20.39493   22.09429   3.240504   2.311916   -9999      -9999      2.084433  
3071.5     13.84927   -0.01545293 79.29118   167.2981   20.05629   22.72536   3.335096   2.358448   -9999      -9999      2.109895  
3072       13.92545   -0.008437234 81.26764   174.9354   19.75628   24.94385   3.454592   2.356713   -9999      -9999      2.151958  
3072.5     14.05254   -0.00419336 83.06451   184.2843   20.03195   28.56648   3.445817   2.313379   -9999      -9999      2.217753  
3073       14.18637   0.00414967 84.83488   192.2021   20.63744   31.93501   3.400923   2.270244   -9999      -9999      2.264887  
3073.5     14.25203   0.01112124 86.70818   196.2529   20.71414   33.46314   3.351828   2.218352   -9999      -9999      2.263128  
3074       14.22602   0.01141921 88.25978   196.1278   20.29048   33.66385   3.217951   2.146058   -9999      -9999      2.222483  
3074.5     14.14878   0.01538745 88.69437   193.2482   19.69753   33.87379   3.017608   2.093627   -9999      -9999      2.17873   
3075       14.08227   0.02555268 88.02844   189.7002   19.16944   34.37043   2.892213   2.101217   -9999      -9999      2.154625  
3075.5     14.05373   0.03452452 87.50566   187.9604   19.31446   34.50627   3.008811   2.168906   -9999      -9999      2.147929  
3076       14.04836   0.03682248 87.53654   188.3977   20.269     33.93712   3.368094   2.260603   -9999      -9999      2.152111  
3076.5     14.06031   0.0355523  87.55219   189.9539   21.32992   32.73645   3.672577   2.327405   -9999      -9999      2.16977   
3077       14.10081   0.03359668 87.01556   189.6615   22.17425   31.48985   3.724531   2.346653   -9999      -9999      2.179855  
3077.5     14.15443   0.03087283 85.44719   187.311    23.05141   30.9374    3.637064   2.339501   -9999      -9999      2.192001  
3078       14.1893    0.02427579 84.07916   183.928    25.06018   30.53225   3.581261   2.33846    -9999      -9999      2.187727  
3078.5     14.19523   0.01131981 82.69676   181.3404   29.79211   29.6636    3.618274   2.356306   -9999      -9999      2.193207  
3079       14.19362   -0.00207722 81.02772   180.3135   38.22491   28.52634   3.672153   2.383459   -9999      -9999      2.225434  
3079.5     14.19739   -0.01077893 80.23586   181.0229   49.90936   27.48889   3.644147   2.402939   -9999      -9999      2.256359  
3080       14.19887   -0.01646396 80.3054    182.3742   61.02005   26.95439   3.550687   2.410541   -9999      -9999      2.270894  
3080.5     14.18742   -0.018613  80.82182   184.6533   66.07479   27.09815   3.48018    2.416978   -9999      -9999      2.284658  
3081       14.1725    -0.01897784 80.71842   184.409    63.28547   26.77337   3.508864   2.428254   -9999      -9999      2.284325  
3081.5     14.16399   -0.01972381 80.52818   182.2138   56.31735   25.68302   3.654615   2.434607   -9999      -9999      2.262866  
3082       14.15562   -0.02070166 79.88422   177.7533   49.31912   25.64358   3.824315   2.419988   -9999      -9999      2.22522   
3082.5     14.14234   -0.02170166 78.8179    170.8765   44.03541   28.07059   3.900934   2.381916   -9999      -9999      2.167607  
3083       14.12386   -0.02053027 76.8882    161.9667   40.76062   31.35496   3.872389   2.341044   -9999      -9999      2.106265  
3083.5     14.0989    -0.01642531 75.09262   156.726    39.50837   32.1083    3.82284    2.324095   -9999      -9999      2.087178  
3084       14.07133   -0.0114917 73.69505   157.1711   39.8821    31.3287    3.827898   2.334203   -9999      -9999      2.132831  
3084.5     14.05349   -0.00866299 73.86017   161.3078   40.67774   31.46569   3.832702   2.342945   -9999      -9999      2.183558  
