~Version
 VERS              .         3                             : CWLS LOG ASCII STANDARD - VERSION 3.0
 WRAP              .         NO                            : ONE LINE PER DEPTH STEP
 DLM               .         SPACE                         : DELIMITING CHARACTER(SPACE TAB OR COMMA)
~Well Information
#_______________________________________________________________________________
#
#PARAMETER_NAME    .UNIT     VALUE                         : DESCRIPTION
#_______________________________________________________________________________
STRT               .FEET     158                           : First reference value
STOP               .FEET     5105                          : Last reference value
STEP               .FEET     0.5                           : Step increment
NULL               .         -9999                         : Missing value
WELL               .         SY-070-1-01V                  : Well name
UWI                .UWI      1_200   ,  1_1000             : 
COMP               .COMP     ADCO                          : 
ORIGINALWELLNAME   .ORIGINALWELLNAME SY-70                         : 
FLD                .FLD      SHAH                          : 
API                .API      1_200   ,  1_1000             : 
LOC                .LOC      LATITUDE_  22* 55' 34.407'' N : 
SRVC               .SRVC     Baker ATLAS                   : 
STAT               .STAT     U.A.E                         : 
CNTY               .CNTY     ABU DHABI                     : 
DATE               .DATE     17-JAN-2013                   : 
LIC                .LIC                                    : 
PROV               .PROV                                   : 
LATI               .                                       : 
LONG               .                                       : 
GDAT               .                                       : 
CTRY               .                                       : 
~Parameter Information Block
#_______________________________________________________________________________
#
#PARAMETER_NAME    .UNIT     VALUE                         : DESCRIPTION
#_______________________________________________________________________________
SET                .         LOG_LQC_FNDR                  : 
REAL_CREATION_DATE .         Sun Mar 3 2013-10_46_33       : 
~Curve Information
#_______________________________________________________________________________
#
#LOGNAME           .UNIT     LOG_ID                        : DESCRIPTION
#_______________________________________________________________________________
MD                 .FEET                                   :  {F}
CALI               .IN                                     : Caliper {F}
DRHO               .G/C3                                   : Density correction {F}
DTC                .US/F                                   : Compressional wave slowness {F}
DTS                .US/F                                   : Shear wave slowness {F}
GR                 .GAPI                                   : Gamma ray {F}
NPHI               .PU                                     : Borehole size corrected compensated neutron porosity {F}
PE                 .B/E                                    : Photo electric cross-section {F}
RHOB               .G/C3                                   : Borehole size/mud weight corrected density {F}
RPD2               .OHMM                                   : 2 MHz 46" PH Calculated Downhole {F}
RPS2               .OHMM                                   : 2 MHz 20" PH Calculated Downhole {F}
VPVS               .                                       : Compressional to shear velocity ratio {F}
~Ascii
# ...
5066.5     9.007      0.06075573 82.9499    157.6591   39.56111   27.08074   3.14032    2.316801   0.7199693  0.6988483  0.5262455 
5067       9.006959   0.06308533 83.35743   156.6089   42.62086   26.89317   3.139847   2.311585   0.7111782  0.6957127  0.5321628 
5067.5     9.006      0.06531599 83.63007   156.1563   43.7951    26.33667   3.152966   2.309398   0.6717123  0.6662925  0.5359997 
5068       9.005953   0.06487352 83.72158   156.0979   43.03661   25.95465   3.152788   2.311072   0.6440028  0.642989   0.5359586 
5068.5     9.004332   0.06158432 83.58893   156.2222   42.14209   25.84236   3.137998   2.312986   0.6359443  0.634602   0.5349183 
5069       8.986856   0.0593572  83.43256   156.4774   41.72108   25.83362   3.146717   2.312657   0.6344306  0.6328487  0.5329576 
5069.5     8.933637   0.05998634 83.02209   156.2506   40.28777   26.04055   3.148092   2.312385   0.6201338  0.6206399  0.5317953 
5070       8.851646   0.05964268 82.3186    156.2587   37.5037    26.22598   3.141948   2.313756   0.6004235  0.6045768  0.5268367 
5070.5     8.770755   0.05899987 81.65823   156.0313   35.55307   25.99292   3.1403     2.316127   0.5950273  0.602831   0.5229191 
5071       8.7169     0.05898609 81.23695   155.7699   36.05036   25.30641   3.148179   2.319484   0.6141222  0.6261197  0.5210414 
5071.5     8.690675   0.05861471 81.18744   155.4702   37.54758   24.79338   3.144259   2.323484   0.6713148  0.6843963  0.5220808 
5072       8.682959   0.05721655 81.14252   154.9917   39.11439   24.84902   3.133458   2.327457   0.7649733  0.7771453  0.523959  
5072.5     8.682      0.05415887 80.88519   154.6687   41.99418   25.4503    3.127955   2.330756   0.8505248  0.8694885  0.5229586 
5073       8.682      0.0495712  80.56916   154.372    46.11518   25.75625   3.126628   2.333113   0.8952292  0.9285391  0.5219188 
5073.5     8.682      0.04704117 80.14518   154.1531   48.49522   25.23348   3.125405   2.336141   0.9208528  0.9651799  0.5200004 
5074       8.682      0.04808567 80.05461   153.9575   47.39185   24.19165   3.110207   2.339896   0.9746295  1.019555   0.5200418 
5074.5     8.682      0.05037149 80.05344   153.6246   44.40481   23.46008   3.088712   2.345885   1.043777   1.082305   0.5211235 
5075       8.682      0.05141172 80.31286   153.1807   -9999      23.3339    3.081455   2.351589   1.041523   1.075168   0.5241637 
5075.5     8.682      0.05340193 80.72163   152.8577   -9999      23.9091    3.066846   2.349564   0.9723431  1.005388   0.5281218 
5076       8.682      0.05530011 81.04865   152.5827   -9999      25.14533   3.062882   2.338161   0.8892677  0.9226644  0.5309992 
5076.5     8.682      0.05445315 81.20509   153.0602   -9999      26.27088   3.059524   2.324868   0.806578   0.8398048  0.5309188 
5077       8.682      0.05751391 81.18597   153.4292   -9999      26.19237   3.056128   2.321279   0.7432134  0.7739722  0.5289991 
5077.5     8.682      0.06228866 81.25935   153.7637   -9999      24.99701   3.050846   2.32842    0.6961772  0.7217838  0.5289184 
5078       8.682      0.0611864  81.36953   154.4903   -9999      24.68295   3.072562   2.330878   0.6844749  0.7016386  0.526959  
5078.5     8.682      0.05729935 81.60551   155.2558   -9999      25.73709   3.105683   2.318971   0.6794794  0.6922787  0.5259606 
5079       8.682      0.05638438 81.97078   156.0896   -9999      26.88026   3.124486   2.309313   0.6588336  0.6746803  0.5251234 
5079.5     8.682      0.05768654 82.69642   156.4854   -9999      27.10754   3.189421   2.308754   0.6406594  0.6599106  0.5281628 
5080       8.682      0.05821681 83.40453   156.6564   -9999      27.26785   3.306454   2.310935   0.6487659  0.6658945  0.5320395 
5080.5     8.682      0.05518608 83.8168    157.2988   -9999      27.223     3.406503   2.309373   0.6636596  0.673553   0.5328777 
5081       8.682      0.05127197 83.75141   157.8924   -9999      26.86315   3.481937   2.301627   0.6379577  0.6456254  0.5299582 
5081.5     8.682      0.04967068 83.31585   157.3969   -9999      26.25278   3.532977   2.300609   0.5764246  0.5899223  0.5288781 
5082       8.682      0.04978305 82.68632   157.11     -9999      25.43594   3.576456   2.307864   0.5194615  0.5387729  0.526     
5082.5     8.682      0.05279995 82.31351   156.3577   -9999      25.27096   3.597338   2.321798   0.4959785  0.514053   0.5260004 
5083       8.68204    0.05633013 82.23944   156.4231   -9999      25.80567   3.597781   2.334033   0.5040374  0.5154678  0.5260407 
5083.5     8.683      0.0562991  82.49303   156.4633   -9999      27.01633   3.591884   2.334963   0.5265319  0.5291042  0.5269994 
5084       8.683      0.05537109 82.7067    156.936    -9999      28.04084   3.597748   2.325219   0.5338415  0.5326563  0.5269176 
5084.5     8.683      0.05637131 82.71664   157.456    -9999      27.97476   3.608567   2.31351    0.5134591  0.515765   0.5248773 
5085       8.683      0.05739785 82.51049   158.2059   -9999      27.21081   3.623409   2.309364   0.4804007  0.4882529  0.5219187 
5085.5     8.683      0.05901751 82.23125   158.0532   -9999      26.03618   3.625668   2.318909   0.4551363  0.4656297  0.52      
5086       8.683      0.0595707  82.00153   157.8151   -9999      25.12249   3.616475   2.334056   0.4597552  0.465866   0.5200006 
5086.5     8.683      0.05701354 82.00095   157.6315   -9999      25.40649   3.602783   2.344292   0.50668    0.5020181  0.5200826 
5087       8.683      0.05734355 82.32162   157.6608   -9999      26.78465   3.57076    2.34329    0.5767933  0.5631959  0.5221638 
5087.5     8.683      0.05761553 82.78432   157.4832   -9999      28.02116   3.546927   2.333454   0.6305237  0.6159263  0.5261228 
5088       8.683      0.05631265 83.49771   157.9491   -9999      27.76995   3.544293   2.32781    0.6679084  0.6576903  0.5290813 
5088.5     8.683      0.05575565 84.16494   158.3945   -9999      26.83075   3.543308   2.331501   0.7314901  0.7151627  0.5309594 
5089       8.683      0.05807227 84.58025   159.5622   -9999      26.97027   3.50785    2.335918   0.8373035  0.7988374  0.5300404 
5089.5     8.682959   0.05999986 84.38454   158.9974   -9999      27.30316   3.477719   2.333911   0.9301502  0.8713328  0.5309192 
5090       8.682      0.05997258 84.01353   158.7905   -9999      25.60225   3.487727   2.33158    0.9007816  0.8552868  0.529164  
5090.5     8.682      0.05923067 83.81969   157.3572   -9999      23.54905   3.523857   2.337999   0.8124976  0.7952033  0.5331637 
5091       8.682      0.05655681 83.95405   156.4012   -9999      22.88958   3.538145   2.34661    0.7731363  0.7731827  0.5370818 
5091.5     8.682      0.05371096 83.98489   155.8504   -9999      24.21757   3.515746   2.345258   0.8038241  0.8060057  0.5390004 
5092       8.682      0.05492352 84.16178   156.0725   -9999      25.95723   3.508776   2.334525   0.886077   0.8777806  0.5391226 
5092.5     8.681876   0.06171072 84.55972   156.1396   -9999      26.62626   3.511026   2.330702   0.973202   0.9600072  0.541959  
5093       8.678507   0.07158858 84.65118   -9999      -9999      27.59142   3.485664   2.331752   1.041465   1.035051   -9999     
5093.5     8.666385   0.078344   -9999      -9999      -9999      27.84127   3.433558   2.33424    1.071024   1.07521    -9999     
5094       8.651631   0.07866952 -9999      -9999      -9999      25.75566   3.42169    2.349621   1.028729   1.0455     -9999     
5094.5     8.642959   0.07864742 -9999      -9999      -9999      22.21534   3.457603   2.383605   0.9334394  0.9621222  -9999     
5095       8.642      0.07811746 -9999      -9999      -9999      19.58943   3.49107    2.425628   0.8323699  0.8638046  -9999     
5095.5     8.642      0.0724565  -9999      -9999      -9999      18.89341   3.51907    2.450991   0.7582656  0.7853193  -9999     
5096       8.642      0.06695846 -9999      -9999      -9999      19.57898   3.529563   2.450726   0.7174888  0.7392694  -9999     
5096.5     8.642      0.06571763 -9999      -9999      -9999      20.59683   3.518625   2.443617   0.7132781  0.730173   -9999     
