~Version
 VERS              .         3                             : CWLS LOG ASCII STANDARD - VERSION 3.0
 WRAP              .         NO                            : ONE LINE PER DEPTH STEP
 DLM               .         SPACE                         : DELIMITING CHARACTER(SPACE TAB OR COMMA)
~Well Information
#_______________________________________________________________________________
#
#PARAMETER_NAME    .UNIT     VALUE                         : DESCRIPTION
#_______________________________________________________________________________
STRT               .FEET     158                           : First reference value
STOP               .FEET     5105                          : Last reference value
STEP               .FEET     0.5                           : Step increment
NULL               .         -9999                         : Missing value
WELL               .         SY-070-1-01V                  : Well name
UWI                .UWI      1_200   ,  1_1000             : 
COMP               .COMP     ADCO                          : 
ORIGINALWELLNAME   .ORIGINALWELLNAME SY-70                         : 
FLD                .FLD      SHAH                          : 
API                .API      1_200   ,  1_1000             : 
LOC                .LOC      LATITUDE_  22* 55' 34.407'' N : 
SRVC               .SRVC     Baker ATLAS                   : 
STAT               .STAT     U.A.E                         : 
CNTY               .CNTY     ABU DHABI                     : 
DATE               .DATE     17-JAN-2013                   : 
LIC                .LIC                                    : 
PROV               .PROV                                   : 
LATI               .                                       : 
LONG               .                                       : 
GDAT               .                                       : 
CTRY               .                                       : 
~Parameter Information Block
#_______________________________________________________________________________
#
#PARAMETER_NAME    .UNIT     VALUE                         : DESCRIPTION
#_______________________________________________________________________________
SET                .         LOG_LQC_FNDR                  : 
REAL_CREATION_DATE .         Sun Mar 3 2013-10_46_33       : 
~Curve Information
#_______________________________________________________________________________
#
#LOGNAME           .UNIT     LOG_ID                        : DESCRIPTION
#_______________________________________________________________________________
MD                 .FEET                                   :  {F}
CALI               .IN                                     : Caliper {F}
DRHO               .G/C3                                   : Density correction {F}
DTC                .US/F                                   : Compressional wave slowness {F}
DTS                .US/F                                   : Shear wave slowness {F}
GR                 .GAPI                                   : Gamma ray {F}
NPHI               .PU                                     : Borehole size corrected compensated neutron porosity {F}
PE                 .B/E                                    : Photo electric cross-section {F}
RHOB               .G/C3                                   : Borehole size/mud weight corrected density {F}
RPD2               .OHMM                                   : 2 MHz 46" PH Calculated Downhole {F}
RPS2               .OHMM                                   : 2 MHz 20" PH Calculated Downhole {F}
VPVS               .                                       : Compressional to shear velocity ratio {F}
~Ascii
# ...
1134       13.3721    -0.01839663 89.23489   190.6793   26.95788   30.92323   3.232295   2.336038   -9999      -9999      2.137149  
1134.5     13.36445   -0.02038364 88.22798   189.0855   29.63202   32.29152   3.32866    2.324925   -9999      -9999      2.143151  
1135       13.36564   -0.02309026 87.63603   188.3501   31.99543   33.19067   3.496063   2.308472   -9999      -9999      2.149153  
1135.5     13.38035   -0.02678372 87.40932   187.9342   32.48587   33.88728   3.625767   2.29124    -9999      -9999      2.150213  
1136       13.39422   -0.03006484 87.56762   188.2996   31.22398   34.17961   3.677608   2.281992   -9999      -9999      2.15072   
1136.5     13.39713   -0.03025238 87.75539   188.4324   30.29677   33.22362   3.733979   2.289975   -9999      -9999      2.147453  
1137       13.40267   -0.02789279 88.00435   188.8424   31.42034   31.7456    3.844989   2.310069   -9999      -9999      2.146068  
1137.5     13.42186   -0.0263339 88.0967    189.394    33.58127   30.91187   3.892826   2.32305    -9999      -9999      2.150243  
1138       13.4414    -0.02742876 88.18404   189.9458   34.96238   30.79298   3.786299   2.317386   -9999      -9999      2.15404   
1138.5     13.45171   -0.02868018 88.26287   190.3693   35.57658   31.11485   3.62682    2.30638    -9999      -9999      2.157082  
1139       13.4539    -0.02686176 88.31139   190.3163   35.85166   31.55704   3.54527    2.308109   -9999      -9999      2.155126  
1139.5     13.45046   -0.02320808 88.18035   189.7287   35.47189   31.08587   3.53746    2.320529   -9999      -9999      2.151931  
1140       13.44269   -0.02063837 87.9356    188.7842   34.68654   29.84244   3.541973   2.329752   -9999      -9999      2.14679   
1140.5     13.43729   -0.02073704 87.89348   187.9454   34.06695   29.53607   3.547922   2.327648   -9999      -9999      2.137993  
1141       13.4396    -0.02240495 88.04308   187.5643   33.91243   30.41799   3.51301    2.316861   -9999      -9999      2.130174  
1141.5     13.44874   -0.02439145 88.07907   187.601    34.35168   31.13355   3.387299   2.301826   -9999      -9999      2.129518  
1142       13.45682   -0.02639194 87.86279   188.2185   35.15213   30.65141   3.277174   2.287994   -9999      -9999      2.142042  
1142.5     13.46174   -0.029813  87.61327   189.1175   35.90036   29.36794   3.32673    2.274949   -9999      -9999      2.158836  
1143       13.46721   -0.03520708 87.71629   190.0249   36.98344   28.33491   3.496159   2.264078   -9999      -9999      2.166602  
1143.5     13.4682    -0.03975843 88.37672   190.966    39.26852   28.01916   3.659535   2.264696   -9999      -9999      2.160834  
1144       13.46517   -0.04023193 89.08682   192.26     42.37475   27.99437   3.736566   2.282286   -9999      -9999      2.158142  
1144.5     13.47117   -0.03574557 89.96901   193.6953   44.74994   28.08076   3.678065   2.301478   -9999      -9999      2.15302   
1145       13.48952   -0.03195052 90.22899   194.9444   45.25174   28.53394   3.552254   2.298203   -9999      -9999      2.160352  
1145.5     13.5085    -0.03104309 90.59757   196.7627   44.54873   29.31414   3.48094    2.273099   -9999      -9999      2.171646  
1146       13.51802   -0.03028751 91.14112   199.7033   44.16888   29.91436   3.465223   2.249484   -9999      -9999      2.191229  
1146.5     13.51849   -0.02787604 91.91325   203.1041   45.78228   29.91102   3.455475   2.244015   -9999      -9999      2.209787  
1147       13.5166    -0.02419099 92.76791   206.0014   49.81979   30.15954   3.479981   2.255394   -9999      -9999      2.22046   
1147.5     13.51888   -0.02091776 93.34698   207.8765   55.22491   31.55071   3.561773   2.272609   -9999      -9999      2.227165  
1148       13.52636   -0.02004349 93.80667   208.2873   60.42403   33.37094   3.638792   2.286303   -9999      -9999      2.220349  
1148.5     13.53458   -0.02071392 94.4188    207.8508   64.46784   34.00267   3.649003   2.295537   -9999      -9999      2.201468  
1149       13.54117   -0.02312801 94.93552   207.0664   67.40163   32.88096   3.576213   2.302169   -9999      -9999      2.181036  
1149.5     13.54363   -0.02467073 96.10172   206.3435   70.52062   31.25409   3.448691   2.312486   -9999      -9999      2.147428  
1150       13.54041   -0.02284101 96.77144   206.6077   74.89835   31.16843   3.327582   2.326546   -9999      -9999      2.135142  
1150.5     13.53478   -0.021329  97.28584   207.664    78.60014   33.18211   3.212443   2.325059   -9999      -9999      2.134744  
1151       13.52808   -0.023876  97.68432   208.0908   78.44849   36.20054   3.050934   2.291644   -9999      -9999      2.129978  
1151.5     13.51895   -0.02780412 97.1465    206.6706   74.87843   40.47839   2.890424   2.241713   -9999      -9999      2.127387  
1152       13.51114   -0.02965708 96.35117   204.4816   71.73683   46.14575   2.835531   2.205299   -9999      -9999      2.122002  
1152.5     13.51555   -0.02783613 95.49573   203.1832   71.40353   49.41047   2.903007   2.193578   -9999      -9999      2.127267  
1153       13.52933   -0.02561114 95.53515   204.7154   73.65132   47.90647   2.975623   2.199225   -9999      -9999      2.142751  
1153.5     13.54022   -0.02431276 96.65019   210.3838   78.56707   43.87452   2.943165   2.208304   -9999      -9999      2.176409  
1154       13.5443    -0.02258052 98.90323   219.8301   87.11925   40.32147   2.821065   2.216604   -9999      -9999      2.222547  
1154.5     13.54712   -0.01915989 101.8138   231.3734   97.4894    39.61296   2.680716   2.222468   -9999      -9999      2.272143  
1155       13.54724   -0.01590653 105.5435   243.7405   103.9722   42.16269   2.566446   2.224643   -9999      -9999      2.309221  
1155.5     13.54414   -0.01360887 109.4694   255.35     102.5082   45.14871   2.504964   2.222831   -9999      -9999      2.332163  
1156       13.5445    -0.0123117 112.74     265.0305   95.15194   45.59855   2.508181   2.218453   -9999      -9999      2.350644  
1156.5     13.54425   -0.01129646 115.5076   272.3458   86.56107   44.70467   2.551738   2.214201   -9999      -9999      2.357885  
1157       13.5397    -0.01101509 117.439    276.7837   79.56651   44.31931   2.599996   2.212341   -9999      -9999      2.356797  
1157.5     13.53449   -0.011     118.1181   278.0592   73.64704   44.04034   2.644943   2.211296   -9999      -9999      2.353887  
1158       13.52948   -0.0124392 117.2218   274.8824   66.728     42.87707   2.692597   2.211735   -9999      -9999      2.34513   
1158.5     13.51584   -0.01440952 114.2156   268.108    58.65702   40.77095   2.710579   2.217024   -9999      -9999      2.347205  
1159       13.49469   -0.01641001 110.4389   258.1684   51.58466   38.83973   2.664657   2.233298   -9999      -9999      2.337371  
1159.5     13.4797    -0.01769006 106.5416   245.1828   47.09912   37.40726   2.631168   2.26103    -9999      -9999      2.300823  
1160       13.47979   -0.01870549 103.0875   231.2921   45.18953   36.13606   2.719469   2.294032   -9999      -9999      2.24328   
1160.5     13.48741   -0.01898476 99.64816   220.09     45.08396   34.6604    2.882323   2.321506   -9999      -9999      2.208657  
1161       13.49131   -0.01827877 96.88953   213.2125   44.97324   33.21574   2.981772   2.340158   -9999      -9999      2.200645  
1161.5     13.48692   -0.01729377 95.14541   210.1841   43.04335   32.48169   3.009421   2.348362   -9999      -9999      2.209395  
1162       13.47789   -0.01701535 94.64172   209.2345   39.71901   33.59724   3.021524   2.345592   -9999      -9999      2.210635  
1162.5     13.47154   -0.017     94.63408   209.2934   36.5572    36.8833    2.996648   2.334703   -9999      -9999      2.21149   
1163       13.47658   -0.01627748 95.07314   209.6773   33.81272   40.66957   2.896282   2.321084   -9999      -9999      2.205467  
1163.5     13.4832    -0.01529255 95.85394   210.0556   31.1256    43.31805   2.776183   2.304927   -9999      -9999      2.191573  
1164       13.47478   -0.01573852 96.65512   209.9916   29.13269   45.83572   2.732726   2.285077   -9999      -9999      2.172785  
