~Version
 VERS              .         3                             : CWLS LOG ASCII STANDARD - VERSION 3.0
 WRAP              .         NO                            : ONE LINE PER DEPTH STEP
 DLM               .         SPACE                         : DELIMITING CHARACTER(SPACE TAB OR COMMA)
~Well Information
#_______________________________________________________________________________
#
#PARAMETER_NAME    .UNIT     VALUE                         : DESCRIPTION
#_______________________________________________________________________________
STRT               .FEET     158                           : First reference value
STOP               .FEET     5105                          : Last reference value
STEP               .FEET     0.5                           : Step increment
NULL               .         -9999                         : Missing value
WELL               .         SY-070-1-01V                  : Well name
UWI                .UWI      1_200   ,  1_1000             : 
COMP               .COMP     ADCO                          : 
ORIGINALWELLNAME   .ORIGINALWELLNAME SY-70                         : 
FLD                .FLD      SHAH                          : 
API                .API      1_200   ,  1_1000             : 
LOC                .LOC      LATITUDE_  22* 55' 34.407'' N : 
SRVC               .SRVC     Baker ATLAS                   : 
STAT               .STAT     U.A.E                         : 
CNTY               .CNTY     ABU DHABI                     : 
DATE               .DATE     17-JAN-2013                   : 
LIC                .LIC                                    : 
PROV               .PROV                                   : 
LATI               .                                       : 
LONG               .                                       : 
GDAT               .                                       : 
CTRY               .                                       : 
~Parameter Information Block
#_______________________________________________________________________________
#
#PARAMETER_NAME    .UNIT     VALUE                         : DESCRIPTION
#_______________________________________________________________________________
SET                .         LOG_LQC_FNDR                  : 
REAL_CREATION_DATE .         Sun Mar 3 2013-10_46_33       : 
~Curve Information
#_______________________________________________________________________________
#
#LOGNAME           .UNIT     LOG_ID                        : DESCRIPTION
#_______________________________________________________________________________
MD                 .FEET                                   :  {F}
CALI               .IN                                     : Caliper {F}
DRHO               .G/C3                                   : Density correction {F}
DTC                .US/F                                   : Compressional wave slowness {F}
DTS                .US/F                                   : Shear wave slowness {F}
GR                 .GAPI                                   : Gamma ray {F}
NPHI               .PU                                     : Borehole size corrected compensated neutron porosity {F}
PE                 .B/E                                    : Photo electric cross-section {F}
RHOB               .G/C3                                   : Borehole size/mud weight corrected density {F}
RPD2               .OHMM                                   : 2 MHz 46" PH Calculated Downhole {F}
RPS2               .OHMM                                   : 2 MHz 20" PH Calculated Downhole {F}
VPVS               .                                       : Compressional to shear velocity ratio {F}
~Ascii
# ...
2109       12.4599    -0.03062085 95.23127   199.4716   27.00977   40.26078   2.176893   2.193624   -9999      -9999      2.094361  
2109.5     12.47439   -0.02779485 93.63303   192.8228   23.44552   38.20465   2.097329   2.229933   -9999      -9999      2.058731  
2110       12.48843   -0.02886959 90.68607   183.5359   20.20125   38.01022   2.101976   2.263358   -9999      -9999      2.023005  
2110.5     12.49978   -0.0313091 86.75945   173.0777   17.45302   36.58097   2.168767   2.291841   -9999      -9999      1.99415   
2111       12.51451   -0.03276841 81.81196   161.5151   14.95142   31.03743   2.29124    2.332558   -9999      -9999      1.973937  
2111.5     12.53612   -0.03102842 75.79601   148.7217   12.14874   22.85439   2.530358   2.410708   -9999      -9999      1.962097  
2112       12.56023   -0.02506279 69.25052   135.9614   8.867633   15.2002    3.011988   2.537517   -9999      -9999      1.964243  
2112.5     12.57744   -0.0192633 62.89938   125.0546   5.792628   9.832445   3.717277   2.687364   -9999      -9999      1.989406  
2113       12.58101   -0.02018487 58.08291   117.5622   3.809712   6.843102   4.311706   2.805631   -9999      -9999      2.024997  
2113.5     12.57616   -0.02792625 55.15421   113.1145   3.042467   5.54977    4.500939   2.865019   -9999      -9999      2.051011  
2114       12.5752    -0.03462954 53.93968   110.2383   2.880158   5.273264   4.395929   2.887987   -9999      -9999      2.043687  
2114.5     12.58073   -0.03644379 53.45298   108.0638   2.773366   5.532167   4.310865   2.899161   -9999      -9999      2.021754  
2115       12.58246   -0.03709951 53.15686   106.5574   2.650295   5.879802   4.434375   2.900474   -9999      -9999      2.004611  
2115.5     12.57968   -0.03997448 52.91713   106.5207   2.619344   5.936654   4.700497   2.892734   -9999      -9999      2.013077  
2116       12.58294   -0.04353335 53.10176   107.3151   2.644661   5.673889   4.883813   2.885803   -9999      -9999      2.021175  
2116.5     12.58899   -0.04533268 53.64826   108.2362   2.568567   5.292503   4.833673   2.886085   -9999      -9999      2.017494  
2117       12.58331   -0.04511264 53.49188   108.6597   2.450978   4.969834   4.624784   2.89031    -9999      -9999      2.031353  
2117.5     12.56776   -0.04467158 52.91125   108.6201   2.50682    4.85137    4.414392   2.891678   -9999      -9999      2.052805  
2118       12.55679   -0.04378353 52.3011    108.5971   2.647701   4.948324   4.228915   2.890664   -9999      -9999      2.076172  
2118.5     12.55796   -0.04311171 52.21715   108.8239   2.599382   5.077808   4.005696   2.893188   -9999      -9999      2.083867  
2119       12.56464   -0.04332842 52.28871   109.1136   2.425084   5.07566    3.73329    2.89919    -9999      -9999      2.086554  
2119.5     12.56549   -0.04421723 53.23025   110.1226   2.408633   4.971706   3.489136   2.904318   -9999      -9999      2.068935  
2120       12.55607   -0.04456062 55.45299   111.1579   2.610897   5.089191   3.40433    2.905682   -9999      -9999      2.005919  
2120.5     12.5437    -0.0431249 58.23966   111.7899   3.169422   6.027707   3.526797   2.892502   -9999      -9999      1.920863  
2121       12.53732   -0.04133132 60.40858   111.977    4.59791    8.279206   3.683683   2.842726   -9999      -9999      1.854273  
2121.5     12.5382    -0.0406714 61.56871   112.1418   6.775053   11.5028    3.665149   2.760218   -9999      -9999      1.821615  
2122       12.53958   -0.03846769 61.5752    113.0258   8.214363   13.4465    3.494522   2.695962   -9999      -9999      1.835843  
2122.5     12.53636   -0.03292025 60.26011   113.5324   7.615134   11.79459   3.364684   2.699849   -9999      -9999      1.884712  
2123       12.53265   -0.02557495 57.91525   113.0033   5.590245   8.14291    3.455067   2.772823   -9999      -9999      1.95263   
2123.5     12.53266   -0.02141973 55.71783   111.9825   3.809609   5.481799   3.749339   2.863231   -9999      -9999      2.010238  
2124       12.5351    -0.02473834 55.4954    111.0346   3.22602    4.689516   4.085659   2.9114     -9999      -9999      2.000997  
2124.5     12.54118   -0.03330737 57.71809   113.9307   3.851766   5.717222   4.341493   2.896074   -9999      -9999      1.974193  
2125       12.55175   -0.04287465 60.54922   118.8692   5.633959   8.567818   4.367659   2.824568   -9999      -9999      1.963446  
2125.5     12.56036   -0.05034278 62.74877   123.204    8.451268   13.1099    4.09972    2.7217     -9999      -9999      1.963205  
2126       12.56246   -0.05225489 63.39413   126.2937   11.17241   17.30497   3.730596   2.638716   -9999      -9999      1.991965  
2126.5     12.56342   -0.04780198 62.47399   127.0787   12.0141    17.19641   3.54859    2.621508   -9999      -9999      2.034492  
2127       12.56656   -0.03990083 60.83383   127.6939   10.34374   12.84159   3.740724   2.67812    -9999      -9999      2.100055  
2127.5     12.56966   -0.03166213 59.83845   130.0687   7.387249   8.839336   4.174687   2.76981    -9999      -9999      2.174064  
2128       12.57332   -0.02674553 60.89031   134.7866   4.992649   7.486295   4.431377   2.826321   -9999      -9999      2.213563  
2128.5     12.57844   -0.02731351 64.41863   140.7387   4.430398   9.015742   4.305137   2.797355   -9999      -9999      2.186348  
2129       12.58499   -0.02990432 69.62194   146.9099   6.105809   13.34482   3.954166   2.698099   -9999      -9999      2.112426  
2129.5     12.59606   -0.02859568 74.30801   152.1174   9.283787   19.38077   3.605729   2.589203   -9999      -9999      2.047953  
2130       12.61301   -0.02145533 76.63716   154.8446   12.04326   24.12197   3.365451   2.516476   -9999      -9999      2.020391  
2130.5     12.62445   -0.01373854 75.90219   153.2114   12.85256   25.38055   3.198369   2.488341   -9999      -9999      2.018272  
2131       12.62028   -0.0120604 72.84639   147.2053   11.74881   23.06469   3.074339   2.499579   -9999      -9999      2.020431  
2131.5     12.60828   -0.01644725 68.64584   138.1944   9.534108   17.79355   3.108923   2.555127   -9999      -9999      2.012568  
2132       12.59973   -0.02103113 64.03777   128.5952   7.026975   12.38785   3.444963   2.653719   -9999      -9999      2.007967  
2132.5     12.59773   -0.02410511 59.65869   120.0574   5.214387   9.138019   3.969244   2.758022   -9999      -9999      2.0122    
2133       12.6032    -0.02921146 56.34169   113.3694   4.599448   7.736702   4.39602    2.820161   -9999      -9999      2.011879  
2133.5     12.6115    -0.03614165 54.52227   109.1239   4.622411   6.970823   4.620649   2.837016   -9999      -9999      2.001256  
2134       12.61516   -0.04169371 54.13342   106.873    4.463438   6.026239   4.690491   2.841714   -9999      -9999      1.974249  
2134.5     12.61379   -0.04491632 54.61538   105.4701   3.820486   4.951662   4.687312   2.855745   -9999      -9999      1.931769  
2135       12.60977   -0.045569  55.22961   104.2159   2.967624   4.148676   4.682137   2.879726   -9999      -9999      1.88736   
2135.5     12.60684   -0.0454302 55.31418   103.8889   2.4081     3.72201    4.69644    2.903057   -9999      -9999      1.878114  
2136       12.61248   -0.04721078 54.83936   103.7533   2.426516   3.52504    4.688578   2.912172   -9999      -9999      1.892116  
2136.5     12.62883   -0.05123428 54.21738   103.2715   2.759287   3.46509    4.573002   2.904788   -9999      -9999      1.905079  
2137       12.64394   -0.05449273 53.93624   102.6586   2.968508   3.522269   4.351384   2.895194   -9999      -9999      1.903593  
2137.5     12.64644   -0.05335896 53.53555   102.442    2.977794   3.681659   4.162064   2.896711   -9999      -9999      1.913632  
2138       12.63666   -0.0491921 53.37824   102.7658   2.992455   3.964586   4.07818    2.905187   -9999      -9999      1.92533   
2138.5     12.62169   -0.04574641 52.98816   102.7444   3.092491   4.252911   4.013153   2.908982   -9999      -9999      1.939069  
2139       12.60954   -0.044529  52.37606   101.9777   3.249508   4.273087   3.945619   2.906417   -9999      -9999      1.946949  
